{
   "type": "FeatureCollection",
   "features": [
  {
    "type": "Feature",
    "geometry": {
       "type": "Point",
       "coordinates":  [ -122.0435556,40.7605142 ]
    },
    "properties": {
    "FIELD1":1,
    "NAME":"Redding, CA",
    "ENTRE":23,
    "IMMIG":25,
    "ImmiEnter":7,
    "TOTAL":496,
    "GEOID":39820,
    "variable":"IMMIGRate",
    "RATE":5.04032258064516
    }
  },
  {
    "type": "Feature",
    "geometry": {
       "type": "Point",
       "coordinates":  [ -116.1309212,34.5375344 ]
    },
    "properties": {
    "FIELD1":2,
    "NAME":"Riverside-San Bernardino-Ontario, CA",
    "ENTRE":530,
    "IMMIG":2519,
    "ImmiEnter":196,
    "TOTAL":8586,
    "GEOID":40140,
    "variable":"IMMIGRate",
    "RATE":29.3384579548102
    }
  },
  {
    "type": "Feature",
    "geometry": {
       "type": "Point",
       "coordinates":  [ -89.0429139,42.331183 ]
    },
    "properties": {
    "FIELD1":3,
    "NAME":"Rockford, IL",
    "ENTRE":58,
    "IMMIG":63,
    "ImmiEnter":4,
    "TOTAL":649,
    "GEOID":40420,
    "variable":"IMMIGRate",
    "RATE":9.70724191063174
    }
  },
  {
    "type": "Feature",
    "geometry": {
       "type": "Point",
       "coordinates":  [ -81.8424008,34.8346199 ]
    },
    "properties": {
    "FIELD1":4,
    "NAME":"Spartanburg, SC",
    "ENTRE":54,
    "IMMIG":79,
    "ImmiEnter":9,
    "TOTAL":928,
    "GEOID":43900,
    "variable":"IMMIGRate",
    "RATE":8.51293103448276
    }
  },
  {
    "type": "Feature",
    "geometry": {
       "type": "Point",
       "coordinates":  [ -76.1961336,43.0065163 ]
    },
    "properties": {
    "FIELD1":5,
    "NAME":"Syracuse, NY",
    "ENTRE":69,
    "IMMIG":111,
    "ImmiEnter":4,
    "TOTAL":1362,
    "GEOID":45060,
    "variable":"IMMIGRate",
    "RATE":8.14977973568282
    }
  },
  {
    "type": "Feature",
    "geometry": {
       "type": "Point",
       "coordinates":  [ -122.9261095,38.5251824 ]
    },
    "properties": {
    "FIELD1":6,
    "NAME":"Santa Rosa, CA",
    "ENTRE":85,
    "IMMIG":181,
    "ImmiEnter":28,
    "TOTAL":902,
    "GEOID":42220,
    "variable":"IMMIGRate",
    "RATE":20.0665188470067
    }
  },
  {
    "type": "Feature",
    "geometry": {
       "type": "Point",
       "coordinates":  [ -122.9017571,44.9033845 ]
    },
    "properties": {
    "FIELD1":7,
    "NAME":"Salem, OR",
    "ENTRE":43,
    "IMMIG":231,
    "ImmiEnter":8,
    "TOTAL":1266,
    "GEOID":41420,
    "variable":"IMMIGRate",
    "RATE":18.2464454976303
    }
  },
  {
    "type": "Feature",
    "geometry": {
       "type": "Point",
       "coordinates":  [ -122.2744317,37.7737185 ]
    },
    "properties": {
    "FIELD1":8,
    "NAME":"San Francisco-Oakland-Hayward, CA",
    "ENTRE":802,
    "IMMIG":3630,
    "ImmiEnter":290,
    "TOTAL":9622,
    "GEOID":41860,
    "variable":"IMMIGRate",
    "RATE":37.7260444813968
    }
  },
  {
    "type": "Feature",
    "geometry": {
       "type": "Point",
       "coordinates":  [ -122.007205,37.0124883 ]
    },
    "properties": {
    "FIELD1":9,
    "NAME":"Santa Cruz-Watsonville, CA",
    "ENTRE":53,
    "IMMIG":103,
    "ImmiEnter":9,
    "TOTAL":660,
    "GEOID":42100,
    "variable":"IMMIGRate",
    "RATE":15.6060606060606
    }
  },
  {
    "type": "Feature",
    "geometry": {
       "type": "Point",
       "coordinates":  [ -121.8831653,47.5530503 ]
    },
    "properties": {
    "FIELD1":10,
    "NAME":"Seattle-Tacoma-Bellevue, WA",
    "ENTRE":620,
    "IMMIG":2206,
    "ImmiEnter":174,
    "TOTAL":9044,
    "GEOID":42660,
    "variable":"IMMIGRate",
    "RATE":24.3918620079611
    }
  },
  {
    "type": "Feature",
    "geometry": {
       "type": "Point",
       "coordinates":  [ -121.3713721,36.9084718 ]
    },
    "properties": {
    "FIELD1":11,
    "NAME":"San Jose-Sunnyvale-Santa Clara, CA",
    "ENTRE":259,
    "IMMIG":1853,
    "ImmiEnter":109,
    "TOTAL":3947,
    "GEOID":41940,
    "variable":"IMMIGRate",
    "RATE":46.9470483911832
    }
  },
  {
    "type": "Feature",
    "geometry": {
       "type": "Point",
       "coordinates":  [ -121.3155723,36.240107 ]
    },
    "properties": {
    "FIELD1":12,
    "NAME":"Salinas, CA",
    "ENTRE":54,
    "IMMIG":339,
    "ImmiEnter":16,
    "TOTAL":841,
    "GEOID":41500,
    "variable":"IMMIGRate",
    "RATE":40.3091557669441
    }
  },
  {
    "type": "Feature",
    "geometry": {
       "type": "Point",
       "coordinates":  [ -121.272244,37.9349815 ]
    },
    "properties": {
    "FIELD1":13,
    "NAME":"Stockton-Lodi, CA",
    "ENTRE":95,
    "IMMIG":503,
    "ImmiEnter":26,
    "TOTAL":1458,
    "GEOID":44700,
    "variable":"IMMIGRate",
    "RATE":34.4993141289438
    }
  },
  {
    "type": "Feature",
    "geometry": {
       "type": "Point",
       "coordinates":  [ -121.0057504,38.7896779 ]
    },
    "properties": {
    "FIELD1":14,
    "NAME":"Sacramento--Roseville--Arden-Arcade, CA",
    "ENTRE":300,
    "IMMIG":1043,
    "ImmiEnter":71,
    "TOTAL":4562,
    "GEOID":40900,
    "variable":"IMMIGRate",
    "RATE":22.862779482683
    }
  },
  {
    "type": "Feature",
    "geometry": {
       "type": "Point",
       "coordinates":  [ -120.4475418,35.3852263 ]
    },
    "properties": {
    "FIELD1":15,
    "NAME":"San Luis Obispo-Paso Robles-Arroyo Grande, CA",
    "ENTRE":53,
    "IMMIG":57,
    "ImmiEnter":3,
    "TOTAL":514,
    "GEOID":42020,
    "variable":"IMMIGRate",
    "RATE":11.0894941634241
    }
  },
  {
    "type": "Feature",
    "geometry": {
       "type": "Point",
       "coordinates":  [ -120.0399729,34.5370572 ]
    },
    "properties": {
    "FIELD1":16,
    "NAME":"Santa Maria-Santa Barbara, CA",
    "ENTRE":45,
    "IMMIG":264,
    "ImmiEnter":3,
    "TOTAL":793,
    "GEOID":42200,
    "variable":"IMMIGRate",
    "RATE":33.2912988650694
    }
  },
  {
    "type": "Feature",
    "geometry": {
       "type": "Point",
       "coordinates":  [ -117.5732186,48.1890407 ]
    },
    "properties": {
    "FIELD1":17,
    "NAME":"Spokane-Spokane Valley, WA",
    "ENTRE":95,
    "IMMIG":42,
    "ImmiEnter":6,
    "TOTAL":1295,
    "GEOID":44060,
    "variable":"IMMIGRate",
    "RATE":3.24324324324324
    }
  },
  {
    "type": "Feature",
    "geometry": {
       "type": "Point",
       "coordinates":  [ -116.7761174,33.0236041 ]
    },
    "properties": {
    "FIELD1":18,
    "NAME":"San Diego-Carlsbad, CA",
    "ENTRE":547,
    "IMMIG":2015,
    "ImmiEnter":184,
    "TOTAL":6891,
    "GEOID":41740,
    "variable":"IMMIGRate",
    "RATE":29.2410390364243
    }
  },
  {
    "type": "Feature",
    "geometry": {
       "type": "Point",
       "coordinates":  [ -113.4878003,37.2625308 ]
    },
    "properties": {
    "FIELD1":19,
    "NAME":"St. George, UT",
    "ENTRE":49,
    "IMMIG":56,
    "ImmiEnter":2,
    "TOTAL":632,
    "GEOID":41100,
    "variable":"IMMIGRate",
    "RATE":8.86075949367089
    }
  },
  {
    "type": "Feature",
    "geometry": {
       "type": "Point",
       "coordinates":  [ -112.9531375,40.5727871 ]
    },
    "properties": {
    "FIELD1":20,
    "NAME":"Salt Lake City, UT",
    "ENTRE":360,
    "IMMIG":842,
    "ImmiEnter":64,
    "TOTAL":5406,
    "GEOID":41620,
    "variable":"IMMIGRate",
    "RATE":15.575286718461
    }
  },
  {
    "type": "Feature",
    "geometry": {
       "type": "Point",
       "coordinates":  [ -105.9657706,35.5143241 ]
    },
    "properties": {
    "FIELD1":21,
    "NAME":"Santa Fe, NM",
    "ENTRE":110,
    "IMMIG":272,
    "ImmiEnter":29,
    "TOTAL":992,
    "GEOID":42140,
    "variable":"IMMIGRate",
    "RATE":27.4193548387097
    }
  },
  {
    "type": "Feature",
    "geometry": {
       "type": "Point",
       "coordinates":  [ -98.6069734,29.4330599 ]
    },
    "properties": {
    "FIELD1":22,
    "NAME":"San Antonio-New Braunfels, TX",
    "ENTRE":291,
    "IMMIG":719,
    "ImmiEnter":68,
    "TOTAL":4477,
    "GEOID":41700,
    "variable":"IMMIGRate",
    "RATE":16.059861514407
    }
  },
  {
    "type": "Feature",
    "geometry": {
       "type": "Point",
       "coordinates":  [ -96.9953387,43.4954205 ]
    },
    "properties": {
    "FIELD1":23,
    "NAME":"Sioux Falls, SD",
    "ENTRE":311,
    "IMMIG":202,
    "ImmiEnter":8,
    "TOTAL":3598,
    "GEOID":43620,
    "variable":"IMMIGRate",
    "RATE":5.61423012784881
    }
  },
  {
    "type": "Feature",
    "geometry": {
       "type": "Point",
       "coordinates":  [ -96.6757378,33.6245321 ]
    },
    "properties": {
    "FIELD1":24,
    "NAME":"Sherman-Denison, TX",
    "ENTRE":35,
    "IMMIG":26,
    "ImmiEnter":4,
    "TOTAL":499,
    "GEOID":43300,
    "variable":"IMMIGRate",
    "RATE":5.21042084168337
    }
  },
  {
    "type": "Feature",
    "geometry": {
       "type": "Point",
       "coordinates":  [ -93.6711914,32.4906379 ]
    },
    "properties": {
    "FIELD1":25,
    "NAME":"Shreveport-Bossier City, LA",
    "ENTRE":87,
    "IMMIG":31,
    "ImmiEnter":2,
    "TOTAL":1856,
    "GEOID":43340,
    "variable":"IMMIGRate",
    "RATE":1.67025862068966
    }
  },
  {
    "type": "Feature",
    "geometry": {
       "type": "Point",
       "coordinates":  [ -93.1802617,37.3608699 ]
    },
    "properties": {
    "FIELD1":26,
    "NAME":"Springfield, MO",
    "ENTRE":83,
    "IMMIG":47,
    "ImmiEnter":8,
    "TOTAL":983,
    "GEOID":44180,
    "variable":"IMMIGRate",
    "RATE":4.78128179043744
    }
  },
  {
    "type": "Feature",
    "geometry": {
       "type": "Point",
       "coordinates":  [ -90.3459564,38.7404035 ]
    },
    "properties": {
    "FIELD1":27,
    "NAME":"St. Louis, MO-IL",
    "ENTRE":322,
    "IMMIG":406,
    "ImmiEnter":12,
    "TOTAL":5978,
    "GEOID":41180,
    "variable":"IMMIGRate",
    "RATE":6.79156908665105
    }
  },
  {
    "type": "Feature",
    "geometry": {
       "type": "Point",
       "coordinates":  [ -89.6962052,39.828565 ]
    },
    "properties": {
    "FIELD1":28,
    "NAME":"Springfield, IL",
    "ENTRE":46,
    "IMMIG":25,
    "ImmiEnter":0,
    "TOTAL":633,
    "GEOID":44100,
    "variable":"IMMIGRate",
    "RATE":3.94944707740916
    }
  },
  {
    "type": "Feature",
    "geometry": {
       "type": "Point",
       "coordinates":  [ -86.1230143,41.7749808 ]
    },
    "properties": {
    "FIELD1":29,
    "NAME":"South Bend-Mishawaka, IN-MI",
    "ENTRE":17,
    "IMMIG":19,
    "ImmiEnter":0,
    "TOTAL":596,
    "GEOID":43780,
    "variable":"IMMIGRate",
    "RATE":3.18791946308725
    }
  },
  {
    "type": "Feature",
    "geometry": {
       "type": "Point",
       "coordinates":  [ -84.05541,43.3282667 ]
    },
    "properties": {
    "FIELD1":30,
    "NAME":"Saginaw, MI",
    "ENTRE":14,
    "IMMIG":28,
    "ImmiEnter":0,
    "TOTAL":359,
    "GEOID":40980,
    "variable":"IMMIGRate",
    "RATE":7.79944289693593
    }
  },
  {
    "type": "Feature",
    "geometry": {
       "type": "Point",
       "coordinates":  [ -81.2730939,32.1091449 ]
    },
    "properties": {
    "FIELD1":31,
    "NAME":"Savannah, GA",
    "ENTRE":51,
    "IMMIG":81,
    "ImmiEnter":6,
    "TOTAL":951,
    "GEOID":42340,
    "variable":"IMMIGRate",
    "RATE":8.51735015772871
    }
  },
  {
    "type": "Feature",
    "geometry": {
       "type": "Point",
       "coordinates":  [ -79.9469346,37.2862262 ]
    },
    "properties": {
    "FIELD1":32,
    "NAME":"Roanoke, VA",
    "ENTRE":10,
    "IMMIG":60,
    "ImmiEnter":2,
    "TOTAL":428,
    "GEOID":40220,
    "variable":"IMMIGRate",
    "RATE":14.018691588785
    }
  },
  {
    "type": "Feature",
    "geometry": {
       "type": "Point",
       "coordinates":  [ -78.4604412,35.7567464 ]
    },
    "properties": {
    "FIELD1":33,
    "NAME":"Raleigh, NC",
    "ENTRE":170,
    "IMMIG":462,
    "ImmiEnter":32,
    "TOTAL":3087,
    "GEOID":39580,
    "variable":"IMMIGRate",
    "RATE":14.9659863945578
    }
  },
  {
    "type": "Feature",
    "geometry": {
       "type": "Point",
       "coordinates":  [ -77.5232575,43.148038 ]
    },
    "properties": {
    "FIELD1":34,
    "NAME":"Rochester, NY",
    "ENTRE":130,
    "IMMIG":140,
    "ImmiEnter":12,
    "TOTAL":2159,
    "GEOID":40380,
    "variable":"IMMIGRate",
    "RATE":6.48448355720241
    }
  },
  {
    "type": "Feature",
    "geometry": {
       "type": "Point",
       "coordinates":  [ -77.4751772,37.4634618 ]
    },
    "properties": {
    "FIELD1":35,
    "NAME":"Richmond, VA",
    "ENTRE":111,
    "IMMIG":314,
    "ImmiEnter":19,
    "TOTAL":2513,
    "GEOID":40060,
    "variable":"IMMIGRate",
    "RATE":12.4950258654994
    }
  },
  {
    "type": "Feature",
    "geometry": {
       "type": "Point",
       "coordinates":  [ -75.9268598,40.4139565 ]
    },
    "properties": {
    "FIELD1":36,
    "NAME":"Reading, PA",
    "ENTRE":31,
    "IMMIG":76,
    "ImmiEnter":7,
    "TOTAL":743,
    "GEOID":39740,
    "variable":"IMMIGRate",
    "RATE":10.228802153432
    }
  },
  {
    "type": "Feature",
    "geometry": {
       "type": "Point",
       "coordinates":  [ -75.8981877,41.3228806 ]
    },
    "properties": {
    "FIELD1":37,
    "NAME":"Scranton--Wilkes-Barre--Hazleton, PA",
    "ENTRE":51,
    "IMMIG":85,
    "ImmiEnter":13,
    "TOTAL":1049,
    "GEOID":42540,
    "variable":"IMMIGRate",
    "RATE":8.10295519542421
    }
  },
  {
    "type": "Feature",
    "geometry": {
       "type": "Point",
       "coordinates":  [ -75.4782615,38.3995211 ]
    },
    "properties": {
    "FIELD1":38,
    "NAME":"Salisbury, MD-DE",
    "ENTRE":153,
    "IMMIG":276,
    "ImmiEnter":13,
    "TOTAL":2337,
    "GEOID":41540,
    "variable":"IMMIGRate",
    "RATE":11.8100128369705
    }
  },
  {
    "type": "Feature",
    "geometry": {
       "type": "Point",
       "coordinates":  [ -72.6320465,42.2477995 ]
    },
    "properties": {
    "FIELD1":39,
    "NAME":"Springfield, MA",
    "ENTRE":110,
    "IMMIG":164,
    "ImmiEnter":0,
    "TOTAL":1717,
    "GEOID":44140,
    "variable":"IMMIGRate",
    "RATE":9.55154338963308
    }
  },
  {
    "type": "Feature",
    "geometry": {
       "type": "Point",
       "coordinates":  [ -98.5019073,33.7761441 ]
    },
    "properties": {
    "FIELD1":40,
    "NAME":"Wichita Falls, TX",
    "ENTRE":23,
    "IMMIG":44,
    "ImmiEnter":7,
    "TOTAL":485,
    "GEOID":48660,
    "variable":"IMMIGRate",
    "RATE":9.07216494845361
    }
  },
  {
    "type": "Feature",
    "geometry": {
       "type": "Point",
       "coordinates":  [ -89.757823,44.8980363 ]
    },
    "properties": {
    "FIELD1":41,
    "NAME":"Wausau, WI",
    "ENTRE":11,
    "IMMIG":8,
    "ImmiEnter":0,
    "TOTAL":339,
    "GEOID":48140,
    "variable":"IMMIGRate",
    "RATE":2.3598820058997
    }
  },
  {
    "type": "Feature",
    "geometry": {
       "type": "Point",
       "coordinates":  [ -82.4652858,28.1259071 ]
    },
    "properties": {
    "FIELD1":42,
    "NAME":"Tampa-St. Petersburg-Clearwater, FL",
    "ENTRE":384,
    "IMMIG":1199,
    "ImmiEnter":71,
    "TOTAL":6349,
    "GEOID":45300,
    "variable":"IMMIGRate",
    "RATE":18.8848637580721
    }
  },
  {
    "type": "Feature",
    "geometry": {
       "type": "Point",
       "coordinates":  [ -71.9255354,42.2173112 ]
    },
    "properties": {
    "FIELD1":43,
    "NAME":"Worcester, MA-CT",
    "ENTRE":170,
    "IMMIG":496,
    "ImmiEnter":42,
    "TOTAL":2713,
    "GEOID":49340,
    "variable":"IMMIGRate",
    "RATE":18.2823442683376
    }
  },
  {
    "type": "Feature",
    "geometry": {
       "type": "Point",
       "coordinates":  [ -158.201974,21.4613654 ]
    },
    "properties": {
    "FIELD1":44,
    "NAME":"Urban Honolulu, HI",
    "ENTRE":498,
    "IMMIG":2382,
    "ImmiEnter":167,
    "TOTAL":9531,
    "GEOID":46520,
    "variable":"IMMIGRate",
    "RATE":24.9921309411394
    }
  },
  {
    "type": "Feature",
    "geometry": {
       "type": "Point",
       "coordinates":  [ -121.939594,38.2672255 ]
    },
    "properties": {
    "FIELD1":45,
    "NAME":"Vallejo-Fairfield, CA",
    "ENTRE":49,
    "IMMIG":173,
    "ImmiEnter":5,
    "TOTAL":791,
    "GEOID":46700,
    "variable":"IMMIGRate",
    "RATE":21.8710493046776
    }
  },
  {
    "type": "Feature",
    "geometry": {
       "type": "Point",
       "coordinates":  [ -118.781061,36.2288241 ]
    },
    "properties": {
    "FIELD1":46,
    "NAME":"Visalia-Porterville, CA",
    "ENTRE":41,
    "IMMIG":365,
    "ImmiEnter":5,
    "TOTAL":857,
    "GEOID":47300,
    "variable":"IMMIGRate",
    "RATE":42.5904317386231
    }
  },
  {
    "type": "Feature",
    "geometry": {
       "type": "Point",
       "coordinates":  [ -113.910905,32.7739424 ]
    },
    "properties": {
    "FIELD1":47,
    "NAME":"Yuma, AZ",
    "ENTRE":21,
    "IMMIG":271,
    "ImmiEnter":9,
    "TOTAL":672,
    "GEOID":49740,
    "variable":"IMMIGRate",
    "RATE":40.327380952381
    }
  },
  {
    "type": "Feature",
    "geometry": {
       "type": "Point",
       "coordinates":  [ -111.7830267,32.1285226 ]
    },
    "properties": {
    "FIELD1":48,
    "NAME":"Tucson, AZ",
    "ENTRE":126,
    "IMMIG":306,
    "ImmiEnter":31,
    "TOTAL":1992,
    "GEOID":46060,
    "variable":"IMMIGRate",
    "RATE":15.3614457831325
    }
  },
  {
    "type": "Feature",
    "geometry": {
       "type": "Point",
       "coordinates":  [ -97.3988319,37.6298308 ]
    },
    "properties": {
    "FIELD1":49,
    "NAME":"Wichita, KS",
    "ENTRE":148,
    "IMMIG":309,
    "ImmiEnter":9,
    "TOTAL":2452,
    "GEOID":48620,
    "variable":"IMMIGRate",
    "RATE":12.6019575856444
    }
  },
  {
    "type": "Feature",
    "geometry": {
       "type": "Point",
       "coordinates":  [ -97.0934727,31.4272264 ]
    },
    "properties": {
    "FIELD1":50,
    "NAME":"Waco, TX",
    "ENTRE":23,
    "IMMIG":91,
    "ImmiEnter":4,
    "TOTAL":466,
    "GEOID":47380,
    "variable":"IMMIGRate",
    "RATE":19.5278969957082
    }
  },
  {
    "type": "Feature",
    "geometry": {
       "type": "Point",
       "coordinates":  [ -96.1749783,36.2541502 ]
    },
    "properties": {
    "FIELD1":51,
    "NAME":"Tulsa, OK",
    "ENTRE":227,
    "IMMIG":404,
    "ImmiEnter":36,
    "TOTAL":3345,
    "GEOID":46140,
    "variable":"IMMIGRate",
    "RATE":12.0777279521674
    }
  },
  {
    "type": "Feature",
    "geometry": {
       "type": "Point",
       "coordinates":  [ -95.8026393,39.0413888 ]
    },
    "properties": {
    "FIELD1":52,
    "NAME":"Topeka, KS",
    "ENTRE":23,
    "IMMIG":61,
    "ImmiEnter":2,
    "TOTAL":808,
    "GEOID":45820,
    "variable":"IMMIGRate",
    "RATE":7.54950495049505
    }
  },
  {
    "type": "Feature",
    "geometry": {
       "type": "Point",
       "coordinates":  [ -95.2687428,32.3751061 ]
    },
    "properties": {
    "FIELD1":53,
    "NAME":"Tyler, TX",
    "ENTRE":28,
    "IMMIG":79,
    "ImmiEnter":14,
    "TOTAL":490,
    "GEOID":46340,
    "variable":"IMMIGRate",
    "RATE":16.1224489795918
    }
  },
  {
    "type": "Feature",
    "geometry": {
       "type": "Point",
       "coordinates":  [ -92.471608,42.5367962 ]
    },
    "properties": {
    "FIELD1":54,
    "NAME":"Waterloo-Cedar Falls, IA",
    "ENTRE":50,
    "IMMIG":56,
    "ImmiEnter":8,
    "TOTAL":800,
    "GEOID":47940,
    "variable":"IMMIGRate",
    "RATE":7
    }
  },
  {
    "type": "Feature",
    "geometry": {
       "type": "Point",
       "coordinates":  [ -87.3470958,39.392389 ]
    },
    "properties": {
    "FIELD1":55,
    "NAME":"Terre Haute, IN",
    "ENTRE":21,
    "IMMIG":9,
    "ImmiEnter":0,
    "TOTAL":496,
    "GEOID":45460,
    "variable":"IMMIGRate",
    "RATE":1.81451612903226
    }
  },
  {
    "type": "Feature",
    "geometry": {
       "type": "Point",
       "coordinates":  [ -84.2804098,30.3864276 ]
    },
    "properties": {
    "FIELD1":56,
    "NAME":"Tallahassee, FL",
    "ENTRE":41,
    "IMMIG":33,
    "ImmiEnter":2,
    "TOTAL":765,
    "GEOID":45220,
    "variable":"IMMIGRate",
    "RATE":4.31372549019608
    }
  },
  {
    "type": "Feature",
    "geometry": {
       "type": "Point",
       "coordinates":  [ -83.6908887,41.5439974 ]
    },
    "properties": {
    "FIELD1":57,
    "NAME":"Toledo, OH",
    "ENTRE":40,
    "IMMIG":13,
    "ImmiEnter":0,
    "TOTAL":1045,
    "GEOID":45780,
    "variable":"IMMIGRate",
    "RATE":1.24401913875598
    }
  },
  {
    "type": "Feature",
    "geometry": {
       "type": "Point",
       "coordinates":  [ -83.6350953,32.4015944 ]
    },
    "properties": {
    "FIELD1":58,
    "NAME":"Warner Robins, GA",
    "ENTRE":26,
    "IMMIG":16,
    "ImmiEnter":5,
    "TOTAL":356,
    "GEOID":47580,
    "variable":"IMMIGRate",
    "RATE":4.49438202247191
    }
  },
  {
    "type": "Feature",
    "geometry": {
       "type": "Point",
       "coordinates":  [ -80.5618679,41.2363015 ]
    },
    "properties": {
    "FIELD1":59,
    "NAME":"Youngstown-Warren-Boardman, OH-PA",
    "ENTRE":50,
    "IMMIG":19,
    "ImmiEnter":4,
    "TOTAL":1225,
    "GEOID":49660,
    "variable":"IMMIGRate",
    "RATE":1.55102040816327
    }
  },
  {
    "type": "Feature",
    "geometry": {
       "type": "Point",
       "coordinates":  [ -80.3450642,36.0788515 ]
    },
    "properties": {
    "FIELD1":60,
    "NAME":"Winston-Salem, NC",
    "ENTRE":48,
    "IMMIG":138,
    "ImmiEnter":9,
    "TOTAL":1266,
    "GEOID":49180,
    "variable":"IMMIGRate",
    "RATE":10.9004739336493
    }
  },
  {
    "type": "Feature",
    "geometry": {
       "type": "Point",
       "coordinates":  [ -78.4718276,39.2729744 ]
    },
    "properties": {
    "FIELD1":61,
    "NAME":"Winchester, VA-WV",
    "ENTRE":31,
    "IMMIG":58,
    "ImmiEnter":1,
    "TOTAL":491,
    "GEOID":49020,
    "variable":"IMMIGRate",
    "RATE":11.8126272912424
    }
  },
  {
    "type": "Feature",
    "geometry": {
       "type": "Point",
       "coordinates":  [ -77.4482275,38.8169283 ]
    },
    "properties": {
    "FIELD1":62,
    "NAME":"Washington-Arlington-Alexandria, DC-VA-MD-WV",
    "ENTRE":1511,
    "IMMIG":6291,
    "ImmiEnter":417,
    "TOTAL":27297,
    "GEOID":47900,
    "variable":"IMMIGRate",
    "RATE":23.0464886251236
    }
  },
  {
    "type": "Feature",
    "geometry": {
       "type": "Point",
       "coordinates":  [ -77.0552254,41.3436196 ]
    },
    "properties": {
    "FIELD1":63,
    "NAME":"Williamsport, PA",
    "ENTRE":34,
    "IMMIG":10,
    "ImmiEnter":0,
    "TOTAL":511,
    "GEOID":48700,
    "variable":"IMMIGRate",
    "RATE":1.95694716242661
    }
  },
  {
    "type": "Feature",
    "geometry": {
       "type": "Point",
       "coordinates":  [ -76.7288887,39.9217514 ]
    },
    "properties": {
    "FIELD1":64,
    "NAME":"York-Hanover, PA",
    "ENTRE":35,
    "IMMIG":51,
    "ImmiEnter":0,
    "TOTAL":800,
    "GEOID":49620,
    "variable":"IMMIGRate",
    "RATE":6.375
    }
  },
  {
    "type": "Feature",
    "geometry": {
       "type": "Point",
       "coordinates":  [ -76.3737908,36.8560812 ]
    },
    "properties": {
    "FIELD1":65,
    "NAME":"Virginia Beach-Norfolk-Newport News, VA-NC",
    "ENTRE":142,
    "IMMIG":288,
    "ImmiEnter":14,
    "TOTAL":3163,
    "GEOID":47260,
    "variable":"IMMIGRate",
    "RATE":9.10527979766045
    }
  },
  {
    "type": "Feature",
    "geometry": {
       "type": "Point",
       "coordinates":  [ -76.0529023,43.9965164 ]
    },
    "properties": {
    "FIELD1":66,
    "NAME":"Watertown-Fort Drum, NY",
    "ENTRE":16,
    "IMMIG":30,
    "ImmiEnter":0,
    "TOTAL":622,
    "GEOID":48060,
    "variable":"IMMIGRate",
    "RATE":4.82315112540193
    }
  },
  {
    "type": "Feature",
    "geometry": {
       "type": "Point",
       "coordinates":  [ -75.173169,43.3322887 ]
    },
    "properties": {
    "FIELD1":67,
    "NAME":"Utica-Rome, NY",
    "ENTRE":33,
    "IMMIG":30,
    "ImmiEnter":6,
    "TOTAL":601,
    "GEOID":46540,
    "variable":"IMMIGRate",
    "RATE":4.99168053244592
    }
  },
  {
    "type": "Feature",
    "geometry": {
       "type": "Point",
       "coordinates":  [ -75.1216435,39.3283874 ]
    },
    "properties": {
    "FIELD1":68,
    "NAME":"Vineland-Bridgeton, NJ",
    "ENTRE":3,
    "IMMIG":58,
    "ImmiEnter":2,
    "TOTAL":233,
    "GEOID":47220,
    "variable":"IMMIGRate",
    "RATE":24.8927038626609
    }
  },
  {
    "type": "Feature",
    "geometry": {
       "type": "Point",
       "coordinates":  [ -74.703724,40.2825027 ]
    },
    "properties": {
    "FIELD1":69,
    "NAME":"Trenton, NJ",
    "ENTRE":32,
    "IMMIG":239,
    "ImmiEnter":8,
    "TOTAL":686,
    "GEOID":45940,
    "variable":"IMMIGRate",
    "RATE":34.8396501457726
    }
  },
  {
    "type": "Feature",
    "geometry": {
       "type": "Point",
       "coordinates":  [ -97.5069659,35.4309676 ]
    },
    "properties": {
    "FIELD1":70,
    "NAME":"Oklahoma City, OK",
    "ENTRE":359,
    "IMMIG":432,
    "ImmiEnter":54,
    "TOTAL":4462,
    "GEOID":36420,
    "variable":"IMMIGRate",
    "RATE":9.68175705961452
    }
  },
  {
    "type": "Feature",
    "geometry": {
       "type": "Point",
       "coordinates":  [ -87.414676,42.7540747 ]
    },
    "properties": {
    "FIELD1":71,
    "NAME":"Racine, WI",
    "ENTRE":19,
    "IMMIG":44,
    "ImmiEnter":4,
    "TOTAL":530,
    "GEOID":39540,
    "variable":"IMMIGRate",
    "RATE":8.30188679245283
    }
  },
  {
    "type": "Feature",
    "geometry": {
       "type": "Point",
       "coordinates":  [ -122.4843457,45.6006204 ]
    },
    "properties": {
    "FIELD1":72,
    "NAME":"Portland-Vancouver-Hillsboro, OR-WA",
    "ENTRE":686,
    "IMMIG":1231,
    "ImmiEnter":122,
    "TOTAL":7900,
    "GEOID":38900,
    "variable":"IMMIGRate",
    "RATE":15.5822784810127
    }
  },
  {
    "type": "Feature",
    "geometry": {
       "type": "Point",
       "coordinates":  [ -121.8157703,48.4932917 ]
    },
    "properties": {
    "FIELD1":73,
    "NAME":"Mount Vernon-Anacortes, WA",
    "ENTRE":58,
    "IMMIG":84,
    "ImmiEnter":12,
    "TOTAL":776,
    "GEOID":34580,
    "variable":"IMMIGRate",
    "RATE":10.8247422680412
    }
  },
  {
    "type": "Feature",
    "geometry": {
       "type": "Point",
       "coordinates":  [ -119.1331432,34.3587415 ]
    },
    "properties": {
    "FIELD1":74,
    "NAME":"Oxnard-Thousand Oaks-Ventura, CA",
    "ENTRE":138,
    "IMMIG":378,
    "ImmiEnter":33,
    "TOTAL":1565,
    "GEOID":37100,
    "variable":"IMMIGRate",
    "RATE":24.1533546325879
    }
  },
  {
    "type": "Feature",
    "geometry": {
       "type": "Point",
       "coordinates":  [ -113.0436525,41.6218833 ]
    },
    "properties": {
    "FIELD1":75,
    "NAME":"Ogden-Clearfield, UT",
    "ENTRE":177,
    "IMMIG":237,
    "ImmiEnter":9,
    "TOTAL":2926,
    "GEOID":36260,
    "variable":"IMMIGRate",
    "RATE":8.09979494190021
    }
  },
  {
    "type": "Feature",
    "geometry": {
       "type": "Point",
       "coordinates":  [ -112.5773855,34.6312117 ]
    },
    "properties": {
    "FIELD1":76,
    "NAME":"Prescott, AZ",
    "ENTRE":47,
    "IMMIG":40,
    "ImmiEnter":7,
    "TOTAL":427,
    "GEOID":39140,
    "variable":"IMMIGRate",
    "RATE":9.36768149882904
    }
  },
  {
    "type": "Feature",
    "geometry": {
       "type": "Point",
       "coordinates":  [ -112.3590592,39.872067 ]
    },
    "properties": {
    "FIELD1":77,
    "NAME":"Provo-Orem, UT",
    "ENTRE":174,
    "IMMIG":278,
    "ImmiEnter":17,
    "TOTAL":2629,
    "GEOID":39340,
    "variable":"IMMIGRate",
    "RATE":10.5743628756181
    }
  },
  {
    "type": "Feature",
    "geometry": {
       "type": "Point",
       "coordinates":  [ -112.0678624,33.1857653 ]
    },
    "properties": {
    "FIELD1":78,
    "NAME":"Phoenix-Mesa-Scottsdale, AZ",
    "ENTRE":635,
    "IMMIG":1829,
    "ImmiEnter":175,
    "TOTAL":9124,
    "GEOID":38060,
    "variable":"IMMIGRate",
    "RATE":20.0460324419114
    }
  },
  {
    "type": "Feature",
    "geometry": {
       "type": "Point",
       "coordinates":  [ -102.5425068,31.8653008 ]
    },
    "properties": {
    "FIELD1":79,
    "NAME":"Odessa, TX",
    "ENTRE":34,
    "IMMIG":95,
    "ImmiEnter":11,
    "TOTAL":498,
    "GEOID":36220,
    "variable":"IMMIGRate",
    "RATE":19.0763052208835
    }
  },
  {
    "type": "Feature",
    "geometry": {
       "type": "Point",
       "coordinates":  [ -95.9999701,41.2904587 ]
    },
    "properties": {
    "FIELD1":80,
    "NAME":"Omaha-Council Bluffs, NE-IA",
    "ENTRE":320,
    "IMMIG":423,
    "ImmiEnter":31,
    "TOTAL":4829,
    "GEOID":36540,
    "variable":"IMMIGRate",
    "RATE":8.75957755228826
    }
  },
  {
    "type": "Feature",
    "geometry": {
       "type": "Point",
       "coordinates":  [ -91.9457289,34.0812083 ]
    },
    "properties": {
    "FIELD1":81,
    "NAME":"Pine Bluff, AR",
    "ENTRE":53,
    "IMMIG":55,
    "ImmiEnter":8,
    "TOTAL":1568,
    "GEOID":38220,
    "variable":"IMMIGRate",
    "RATE":3.50765306122449
    }
  },
  {
    "type": "Feature",
    "geometry": {
       "type": "Point",
       "coordinates":  [ -89.7013821,29.805532 ]
    },
    "properties": {
    "FIELD1":82,
    "NAME":"New Orleans-Metairie, LA",
    "ENTRE":431,
    "IMMIG":482,
    "ImmiEnter":74,
    "TOTAL":5264,
    "GEOID":35380,
    "variable":"IMMIGRate",
    "RATE":9.1565349544073
    }
  },
  {
    "type": "Feature",
    "geometry": {
       "type": "Point",
       "coordinates":  [ -89.514745,40.7882548 ]
    },
    "properties": {
    "FIELD1":83,
    "NAME":"Peoria, IL",
    "ENTRE":32,
    "IMMIG":27,
    "ImmiEnter":4,
    "TOTAL":732,
    "GEOID":37900,
    "variable":"IMMIGRate",
    "RATE":3.68852459016393
    }
  },
  {
    "type": "Feature",
    "geometry": {
       "type": "Point",
       "coordinates":  [ -88.6681488,44.0857068 ]
    },
    "properties": {
    "FIELD1":84,
    "NAME":"Oshkosh-Neenah, WI",
    "ENTRE":20,
    "IMMIG":4,
    "ImmiEnter":0,
    "TOTAL":343,
    "GEOID":36780,
    "variable":"IMMIGRate",
    "RATE":1.16618075801749
    }
  },
  {
    "type": "Feature",
    "geometry": {
       "type": "Point",
       "coordinates":  [ -87.1618275,30.6554013 ]
    },
    "properties": {
    "FIELD1":85,
    "NAME":"Pensacola-Ferry Pass-Brent, FL",
    "ENTRE":42,
    "IMMIG":54,
    "ImmiEnter":2,
    "TOTAL":823,
    "GEOID":37860,
    "variable":"IMMIGRate",
    "RATE":6.56136087484812
    }
  },
  {
    "type": "Feature",
    "geometry": {
       "type": "Point",
       "coordinates":  [ -86.7266015,36.0885065 ]
    },
    "properties": {
    "FIELD1":86,
    "NAME":"Nashville-Davidson--Murfreesboro--Franklin, TN",
    "ENTRE":411,
    "IMMIG":487,
    "ImmiEnter":45,
    "TOTAL":4953,
    "GEOID":34980,
    "variable":"IMMIGRate",
    "RATE":9.83242479305471
    }
  },
  {
    "type": "Feature",
    "geometry": {
       "type": "Point",
       "coordinates":  [ -86.7418216,41.7926389 ]
    },
    "properties": {
    "FIELD1":87,
    "NAME":"Niles-Benton Harbor, MI",
    "ENTRE":17,
    "IMMIG":24,
    "ImmiEnter":0,
    "TOTAL":406,
    "GEOID":35660,
    "variable":"IMMIGRate",
    "RATE":5.91133004926108
    }
  },
  {
    "type": "Feature",
    "geometry": {
       "type": "Point",
       "coordinates":  [ -86.751892,43.2892579 ]
    },
    "properties": {
    "FIELD1":88,
    "NAME":"Muskegon, MI",
    "ENTRE":17,
    "IMMIG":8,
    "ImmiEnter":0,
    "TOTAL":492,
    "GEOID":34740,
    "variable":"IMMIGRate",
    "RATE":1.6260162601626
    }
  },
  {
    "type": "Feature",
    "geometry": {
       "type": "Point",
       "coordinates":  [ -85.4749707,30.1010953 ]
    },
    "properties": {
    "FIELD1":89,
    "NAME":"Panama City, FL",
    "ENTRE":19,
    "IMMIG":43,
    "ImmiEnter":11,
    "TOTAL":531,
    "GEOID":37460,
    "variable":"IMMIGRate",
    "RATE":8.09792843691149
    }
  },
  {
    "type": "Feature",
    "geometry": {
       "type": "Point",
       "coordinates":  [ -82.3193366,27.3642465 ]
    },
    "properties": {
    "FIELD1":90,
    "NAME":"North Port-Sarasota-Bradenton, FL",
    "ENTRE":97,
    "IMMIG":209,
    "ImmiEnter":25,
    "TOTAL":1303,
    "GEOID":35840,
    "variable":"IMMIGRate",
    "RATE":16.039907904835
    }
  },
  {
    "type": "Feature",
    "geometry": {
       "type": "Point",
       "coordinates":  [ -82.0431004,29.2028047 ]
    },
    "properties": {
    "FIELD1":91,
    "NAME":"Ocala, FL",
    "ENTRE":70,
    "IMMIG":78,
    "ImmiEnter":11,
    "TOTAL":579,
    "GEOID":36100,
    "variable":"IMMIGRate",
    "RATE":13.4715025906736
    }
  },
  {
    "type": "Feature",
    "geometry": {
       "type": "Point",
       "coordinates":  [ -81.4009553,26.118786 ]
    },
    "properties": {
    "FIELD1":92,
    "NAME":"Naples-Immokalee-Marco Island, FL",
    "ENTRE":89,
    "IMMIG":210,
    "ImmiEnter":29,
    "TOTAL":660,
    "GEOID":34940,
    "variable":"IMMIGRate",
    "RATE":31.8181818181818
    }
  },
  {
    "type": "Feature",
    "geometry": {
       "type": "Point",
       "coordinates":  [ -81.3558763,28.434348 ]
    },
    "properties": {
    "FIELD1":93,
    "NAME":"Orlando-Kissimmee-Sanford, FL",
    "ENTRE":353,
    "IMMIG":1131,
    "ImmiEnter":114,
    "TOTAL":4823,
    "GEOID":36740,
    "variable":"IMMIGRate",
    "RATE":23.4501347708895
    }
  },
  {
    "type": "Feature",
    "geometry": {
       "type": "Point",
       "coordinates":  [ -80.7003309,28.2983043 ]
    },
    "properties": {
    "FIELD1":94,
    "NAME":"Palm Bay-Melbourne-Titusville, FL",
    "ENTRE":60,
    "IMMIG":64,
    "ImmiEnter":5,
    "TOTAL":1009,
    "GEOID":37340,
    "variable":"IMMIGRate",
    "RATE":6.34291377601586
    }
  },
  {
    "type": "Feature",
    "geometry": {
       "type": "Point",
       "coordinates":  [ -80.4267701,27.2326989 ]
    },
    "properties": {
    "FIELD1":95,
    "NAME":"Port St. Lucie, FL",
    "ENTRE":66,
    "IMMIG":180,
    "ImmiEnter":25,
    "TOTAL":721,
    "GEOID":38940,
    "variable":"IMMIGRate",
    "RATE":24.9653259361997
    }
  },
  {
    "type": "Feature",
    "geometry": {
       "type": "Point",
       "coordinates":  [ -79.8280615,40.4343378 ]
    },
    "properties": {
    "FIELD1":96,
    "NAME":"Pittsburgh, PA",
    "ENTRE":223,
    "IMMIG":207,
    "ImmiEnter":12,
    "TOTAL":4727,
    "GEOID":38300,
    "variable":"IMMIGRate",
    "RATE":4.3790987941612
    }
  },
  {
    "type": "Feature",
    "geometry": {
       "type": "Point",
       "coordinates":  [ -78.6127235,33.9690951 ]
    },
    "properties": {
    "FIELD1":97,
    "NAME":"Myrtle Beach-Conway-North Myrtle Beach, SC-NC",
    "ENTRE":67,
    "IMMIG":54,
    "ImmiEnter":12,
    "TOTAL":903,
    "GEOID":34820,
    "variable":"IMMIGRate",
    "RATE":5.98006644518272
    }
  },
  {
    "type": "Feature",
    "geometry": {
       "type": "Point",
       "coordinates":  [ -75.3120032,39.8951304 ]
    },
    "properties": {
    "FIELD1":98,
    "NAME":"Philadelphia-Camden-Wilmington, PA-NJ-DE-MD",
    "ENTRE":890,
    "IMMIG":2197,
    "ImmiEnter":175,
    "TOTAL":15362,
    "GEOID":37980,
    "variable":"IMMIGRate",
    "RATE":14.3015232391616
    }
  },
  {
    "type": "Feature",
    "geometry": {
       "type": "Point",
       "coordinates":  [ -73.9031302,40.8987884 ]
    },
    "properties": {
    "FIELD1":99,
    "NAME":"New York-Newark-Jersey City, NY-NJ-PA",
    "ENTRE":2274,
    "IMMIG":12611,
    "ImmiEnter":723,
    "TOTAL":37968,
    "GEOID":35620,
    "variable":"IMMIGRate",
    "RATE":33.214812473662
    }
  },
  {
    "type": "Feature",
    "geometry": {
       "type": "Point",
       "coordinates":  [ -72.9002037,41.3497173 ]
    },
    "properties": {
    "FIELD1":100,
    "NAME":"New Haven-Milford, CT",
    "ENTRE":114,
    "IMMIG":369,
    "ImmiEnter":22,
    "TOTAL":2139,
    "GEOID":35300,
    "variable":"IMMIGRate",
    "RATE":17.2510518934081
    }
  },
  {
    "type": "Feature",
    "geometry": {
       "type": "Point",
       "coordinates":  [ -72.1086329,41.4726514 ]
    },
    "properties": {
    "FIELD1":101,
    "NAME":"Norwich-New London, CT",
    "ENTRE":30,
    "IMMIG":104,
    "ImmiEnter":5,
    "TOTAL":647,
    "GEOID":35980,
    "variable":"IMMIGRate",
    "RATE":16.0741885625966
    }
  },
  {
    "type": "Feature",
    "geometry": {
       "type": "Point",
       "coordinates":  [ -71.2892856,41.7016138 ]
    },
    "properties": {
    "FIELD1":102,
    "NAME":"Providence-Warwick, RI-MA",
    "ENTRE":545,
    "IMMIG":1628,
    "ImmiEnter":72,
    "TOTAL":9634,
    "GEOID":39300,
    "variable":"IMMIGRate",
    "RATE":16.8984845339423
    }
  },
  {
    "type": "Feature",
    "geometry": {
       "type": "Point",
       "coordinates":  [ -70.4183755,43.6514172 ]
    },
    "properties": {
    "FIELD1":103,
    "NAME":"Portland-South Portland, ME",
    "ENTRE":415,
    "IMMIG":131,
    "ImmiEnter":6,
    "TOTAL":3387,
    "GEOID":38860,
    "variable":"IMMIGRate",
    "RATE":3.86772955417774
    }
  },
  {
    "type": "Feature",
    "geometry": {
       "type": "Point",
       "coordinates":  [ -93.3515965,45.0612031 ]
    },
    "properties": {
    "FIELD1":104,
    "NAME":"Minneapolis-St. Paul-Bloomington, MN-WI",
    "ENTRE":513,
    "IMMIG":1009,
    "ImmiEnter":39,
    "TOTAL":7731,
    "GEOID":33460,
    "variable":"IMMIGRate",
    "RATE":13.0513517009443
    }
  },
  {
    "type": "Feature",
    "geometry": {
       "type": "Point",
       "coordinates":  [ -87.4815485,43.0176524 ]
    },
    "properties": {
    "FIELD1":105,
    "NAME":"Milwaukee-Waukesha-West Allis, WI",
    "ENTRE":190,
    "IMMIG":320,
    "ImmiEnter":36,
    "TOTAL":3373,
    "GEOID":33340,
    "variable":"IMMIGRate",
    "RATE":9.48710346872221
    }
  },
  {
    "type": "Feature",
    "geometry": {
       "type": "Point",
       "coordinates":  [ -122.8976901,43.9283286 ]
    },
    "properties": {
    "FIELD1":106,
    "NAME":"Eugene, OR",
    "ENTRE":104,
    "IMMIG":126,
    "ImmiEnter":3,
    "TOTAL":1063,
    "GEOID":21660,
    "variable":"IMMIGRate",
    "RATE":11.8532455315146
    }
  },
  {
    "type": "Feature",
    "geometry": {
       "type": "Point",
       "coordinates":  [ -122.6756846,42.4116284 ]
    },
    "properties": {
    "FIELD1":107,
    "NAME":"Medford, OR",
    "ENTRE":103,
    "IMMIG":121,
    "ImmiEnter":18,
    "TOTAL":892,
    "GEOID":32780,
    "variable":"IMMIGRate",
    "RATE":13.5650224215247
    }
  },
  {
    "type": "Feature",
    "geometry": {
       "type": "Point",
       "coordinates":  [ -121.0026557,37.5623842 ]
    },
    "properties": {
    "FIELD1":108,
    "NAME":"Modesto, CA",
    "ENTRE":40,
    "IMMIG":282,
    "ImmiEnter":18,
    "TOTAL":1041,
    "GEOID":33700,
    "variable":"IMMIGRate",
    "RATE":27.0893371757925
    }
  },
  {
    "type": "Feature",
    "geometry": {
       "type": "Point",
       "coordinates":  [ -119.8155301,36.072478 ]
    },
    "properties": {
    "FIELD1":109,
    "NAME":"Hanford-Corcoran, CA",
    "ENTRE":23,
    "IMMIG":216,
    "ImmiEnter":3,
    "TOTAL":731,
    "GEOID":25260,
    "variable":"IMMIGRate",
    "RATE":29.5485636114911
    }
  },
  {
    "type": "Feature",
    "geometry": {
       "type": "Point",
       "coordinates":  [ -119.6550193,36.7610058 ]
    },
    "properties": {
    "FIELD1":110,
    "NAME":"Fresno, CA",
    "ENTRE":74,
    "IMMIG":545,
    "ImmiEnter":28,
    "TOTAL":2023,
    "GEOID":23420,
    "variable":"IMMIGRate",
    "RATE":26.9401878398418
    }
  },
  {
    "type": "Feature",
    "geometry": {
       "type": "Point",
       "coordinates":  [ -118.1825492,34.1090244 ]
    },
    "properties": {
    "FIELD1":111,
    "NAME":"Los Angeles-Long Beach-Anaheim, CA",
    "ENTRE":2472,
    "IMMIG":11244,
    "ImmiEnter":1125,
    "TOTAL":28209,
    "GEOID":31080,
    "variable":"IMMIGRate",
    "RATE":39.8596192704456
    }
  },
  {
    "type": "Feature",
    "geometry": {
       "type": "Point",
       "coordinates":  [ -108.3245778,36.5116245 ]
    },
    "properties": {
    "FIELD1":112,
    "NAME":"Farmington, NM",
    "ENTRE":40,
    "IMMIG":50,
    "ImmiEnter":0,
    "TOTAL":905,
    "GEOID":22140,
    "variable":"IMMIGRate",
    "RATE":5.52486187845304
    }
  },
  {
    "type": "Feature",
    "geometry": {
       "type": "Point",
       "coordinates":  [ -106.4565347,35.1166033 ]
    },
    "properties": {
    "FIELD1":113,
    "NAME":"Albuquerque, NM",
    "ENTRE":403,
    "IMMIG":936,
    "ImmiEnter":73,
    "TOTAL":7060,
    "GEOID":10740,
    "variable":"IMMIGRate",
    "RATE":13.257790368272
    }
  },
  {
    "type": "Feature",
    "geometry": {
       "type": "Point",
       "coordinates":  [ -105.5213326,31.527394 ]
    },
    "properties": {
    "FIELD1":114,
    "NAME":"El Paso, TX",
    "ENTRE":79,
    "IMMIG":466,
    "ImmiEnter":17,
    "TOTAL":1643,
    "GEOID":21340,
    "variable":"IMMIGRate",
    "RATE":28.3627510651248
    }
  },
  {
    "type": "Feature",
    "geometry": {
       "type": "Point",
       "coordinates":  [ -105.4867638,40.6580933 ]
    },
    "properties": {
    "FIELD1":115,
    "NAME":"Fort Collins, CO",
    "ENTRE":50,
    "IMMIG":14,
    "ImmiEnter":3,
    "TOTAL":594,
    "GEOID":22660,
    "variable":"IMMIGRate",
    "RATE":2.35690235690236
    }
  },
  {
    "type": "Feature",
    "geometry": {
       "type": "Point",
       "coordinates":  [ -104.901209,39.4347492 ]
    },
    "properties": {
    "FIELD1":116,
    "NAME":"Denver-Aurora-Lakewood, CO",
    "ENTRE":489,
    "IMMIG":867,
    "ImmiEnter":67,
    "TOTAL":6031,
    "GEOID":19740,
    "variable":"IMMIGRate",
    "RATE":14.3757254186702
    }
  },
  {
    "type": "Feature",
    "geometry": {
       "type": "Point",
       "coordinates":  [ -104.3942215,40.5536965 ]
    },
    "properties": {
    "FIELD1":117,
    "NAME":"Greeley, CO",
    "ENTRE":62,
    "IMMIG":67,
    "ImmiEnter":0,
    "TOTAL":679,
    "GEOID":24540,
    "variable":"IMMIGRate",
    "RATE":9.86745213549337
    }
  },
  {
    "type": "Feature",
    "geometry": {
       "type": "Point",
       "coordinates":  [ -101.9086668,35.2480011 ]
    },
    "properties": {
    "FIELD1":118,
    "NAME":"Amarillo, TX",
    "ENTRE":26,
    "IMMIG":49,
    "ImmiEnter":3,
    "TOTAL":530,
    "GEOID":11100,
    "variable":"IMMIGRate",
    "RATE":9.24528301886792
    }
  },
  {
    "type": "Feature",
    "geometry": {
       "type": "Point",
       "coordinates":  [ -101.6488249,33.4703271 ]
    },
    "properties": {
    "FIELD1":119,
    "NAME":"Lubbock, TX",
    "ENTRE":20,
    "IMMIG":46,
    "ImmiEnter":2,
    "TOTAL":481,
    "GEOID":31180,
    "variable":"IMMIGRate",
    "RATE":9.56340956340956
    }
  },
  {
    "type": "Feature",
    "geometry": {
       "type": "Point",
       "coordinates":  [ -99.7187428,32.4520222 ]
    },
    "properties": {
    "FIELD1":120,
    "NAME":"Abilene, TX",
    "ENTRE":31,
    "IMMIG":42,
    "ImmiEnter":4,
    "TOTAL":499,
    "GEOID":10180,
    "variable":"IMMIGRate",
    "RATE":8.41683366733467
    }
  },
  {
    "type": "Feature",
    "geometry": {
       "type": "Point",
       "coordinates":  [ -98.18099,26.3963839 ]
    },
    "properties": {
    "FIELD1":121,
    "NAME":"McAllen-Edinburg-Mission, TX",
    "ENTRE":89,
    "IMMIG":432,
    "ImmiEnter":57,
    "TOTAL":1428,
    "GEOID":32580,
    "variable":"IMMIGRate",
    "RATE":30.2521008403361
    }
  },
  {
    "type": "Feature",
    "geometry": {
       "type": "Point",
       "coordinates":  [ -96.9601826,46.9148591 ]
    },
    "properties": {
    "FIELD1":122,
    "NAME":"Fargo, ND-MN",
    "ENTRE":148,
    "IMMIG":260,
    "ImmiEnter":4,
    "TOTAL":3095,
    "GEOID":22020,
    "variable":"IMMIGRate",
    "RATE":8.40064620355412
    }
  },
  {
    "type": "Feature",
    "geometry": {
       "type": "Point",
       "coordinates":  [ -95.3536422,29.7495926 ]
    },
    "properties": {
    "FIELD1":123,
    "NAME":"Houston-The Woodlands-Sugar Land, TX",
    "ENTRE":789,
    "IMMIG":4153,
    "ImmiEnter":348,
    "TOTAL":12633,
    "GEOID":26420,
    "variable":"IMMIGRate",
    "RATE":32.874218317106
    }
  },
  {
    "type": "Feature",
    "geometry": {
       "type": "Point",
       "coordinates":  [ -94.819897,32.364601 ]
    },
    "properties": {
    "FIELD1":124,
    "NAME":"Longview, TX",
    "ENTRE":35,
    "IMMIG":50,
    "ImmiEnter":6,
    "TOTAL":719,
    "GEOID":30980,
    "variable":"IMMIGRate",
    "RATE":6.95410292072323
    }
  },
  {
    "type": "Feature",
    "geometry": {
       "type": "Point",
       "coordinates":  [ -94.562533,35.1955345 ]
    },
    "properties": {
    "FIELD1":125,
    "NAME":"Fort Smith, AR-OK",
    "ENTRE":45,
    "IMMIG":55,
    "ImmiEnter":0,
    "TOTAL":992,
    "GEOID":22900,
    "variable":"IMMIGRate",
    "RATE":5.54435483870968
    }
  },
  {
    "type": "Feature",
    "geometry": {
       "type": "Point",
       "coordinates":  [ -94.1198967,36.1976326 ]
    },
    "properties": {
    "FIELD1":126,
    "NAME":"Fayetteville-Springdale-Rogers, AR-MO",
    "ENTRE":147,
    "IMMIG":456,
    "ImmiEnter":19,
    "TOTAL":2957,
    "GEOID":22220,
    "variable":"IMMIGRate",
    "RATE":15.4210348326006
    }
  },
  {
    "type": "Feature",
    "geometry": {
       "type": "Point",
       "coordinates":  [ -93.9434866,41.5448597 ]
    },
    "properties": {
    "FIELD1":127,
    "NAME":"Des Moines-West Des Moines, IA",
    "ENTRE":105,
    "IMMIG":204,
    "ImmiEnter":5,
    "TOTAL":2076,
    "GEOID":19780,
    "variable":"IMMIGRate",
    "RATE":9.82658959537572
    }
  },
  {
    "type": "Feature",
    "geometry": {
       "type": "Point",
       "coordinates":  [ -92.4005889,34.7557726 ]
    },
    "properties": {
    "FIELD1":128,
    "NAME":"Little Rock-North Little Rock-Conway, AR",
    "ENTRE":245,
    "IMMIG":316,
    "ImmiEnter":18,
    "TOTAL":4026,
    "GEOID":30780,
    "variable":"IMMIGRate",
    "RATE":7.84898161947342
    }
  },
  {
    "type": "Feature",
    "geometry": {
       "type": "Point",
       "coordinates":  [ -92.2627929,32.6904772 ]
    },
    "properties": {
    "FIELD1":129,
    "NAME":"Monroe, LA",
    "ENTRE":58,
    "IMMIG":23,
    "ImmiEnter":4,
    "TOTAL":839,
    "GEOID":33740,
    "variable":"IMMIGRate",
    "RATE":2.74135876042908
    }
  },
  {
    "type": "Feature",
    "geometry": {
       "type": "Point",
       "coordinates":  [ -89.8218159,35.0085568 ]
    },
    "properties": {
    "FIELD1":130,
    "NAME":"Memphis, TN-MS-AR",
    "ENTRE":171,
    "IMMIG":294,
    "ImmiEnter":13,
    "TOTAL":3812,
    "GEOID":32820,
    "variable":"IMMIGRate",
    "RATE":7.71248688352571
    }
  },
  {
    "type": "Feature",
    "geometry": {
       "type": "Point",
       "coordinates":  [ -89.5971781,43.0842875 ]
    },
    "properties": {
    "FIELD1":131,
    "NAME":"Madison, WI",
    "ENTRE":72,
    "IMMIG":205,
    "ImmiEnter":10,
    "TOTAL":1425,
    "GEOID":31540,
    "variable":"IMMIGRate",
    "RATE":14.3859649122807
    }
  },
  {
    "type": "Feature",
    "geometry": {
       "type": "Point",
       "coordinates":  [ -88.3723255,44.2906032 ]
    },
    "properties": {
    "FIELD1":132,
    "NAME":"Appleton, WI",
    "ENTRE":27,
    "IMMIG":22,
    "ImmiEnter":1,
    "TOTAL":586,
    "GEOID":11540,
    "variable":"IMMIGRate",
    "RATE":3.7542662116041
    }
  },
  {
    "type": "Feature",
    "geometry": {
       "type": "Point",
       "coordinates":  [ -88.1965682,30.6845725 ]
    },
    "properties": {
    "FIELD1":133,
    "NAME":"Mobile, AL",
    "ENTRE":67,
    "IMMIG":41,
    "ImmiEnter":0,
    "TOTAL":1350,
    "GEOID":33660,
    "variable":"IMMIGRate",
    "RATE":3.03703703703704
    }
  },
  {
    "type": "Feature",
    "geometry": {
       "type": "Point",
       "coordinates":  [ -87.9959258,44.4739612 ]
    },
    "properties": {
    "FIELD1":134,
    "NAME":"Green Bay, WI",
    "ENTRE":49,
    "IMMIG":28,
    "ImmiEnter":1,
    "TOTAL":675,
    "GEOID":24580,
    "variable":"IMMIGRate",
    "RATE":4.14814814814815
    }
  },
  {
    "type": "Feature",
    "geometry": {
       "type": "Point",
       "coordinates":  [ -87.7193881,34.7992544 ]
    },
    "properties": {
    "FIELD1":135,
    "NAME":"Florence-Muscle Shoals, AL",
    "ENTRE":64,
    "IMMIG":19,
    "ImmiEnter":0,
    "TOTAL":859,
    "GEOID":22520,
    "variable":"IMMIGRate",
    "RATE":2.21187427240978
    }
  },
  {
    "type": "Feature",
    "geometry": {
       "type": "Point",
       "coordinates":  [ -87.5861659,38.0200703 ]
    },
    "properties": {
    "FIELD1":136,
    "NAME":"Evansville, IN-KY",
    "ENTRE":45,
    "IMMIG":47,
    "ImmiEnter":14,
    "TOTAL":578,
    "GEOID":21780,
    "variable":"IMMIGRate",
    "RATE":8.13148788927336
    }
  },
  {
    "type": "Feature",
    "geometry": {
       "type": "Point",
       "coordinates":  [ -86.4045848,32.3656313 ]
    },
    "properties": {
    "FIELD1":137,
    "NAME":"Montgomery, AL",
    "ENTRE":106,
    "IMMIG":87,
    "ImmiEnter":11,
    "TOTAL":1398,
    "GEOID":33860,
    "variable":"IMMIGRate",
    "RATE":6.22317596566524
    }
  },
  {
    "type": "Feature",
    "geometry": {
       "type": "Point",
       "coordinates":  [ -85.8639864,41.6006928 ]
    },
    "properties": {
    "FIELD1":138,
    "NAME":"Elkhart-Goshen, IN",
    "ENTRE":23,
    "IMMIG":120,
    "ImmiEnter":3,
    "TOTAL":665,
    "GEOID":21140,
    "variable":"IMMIGRate",
    "RATE":18.0451127819549
    }
  },
  {
    "type": "Feature",
    "geometry": {
       "type": "Point",
       "coordinates":  [ -85.8112082,42.9786324 ]
    },
    "properties": {
    "FIELD1":139,
    "NAME":"Grand Rapids-Wyoming, MI",
    "ENTRE":135,
    "IMMIG":187,
    "ImmiEnter":13,
    "TOTAL":2076,
    "GEOID":24340,
    "variable":"IMMIGRate",
    "RATE":9.00770712909441
    }
  },
  {
    "type": "Feature",
    "geometry": {
       "type": "Point",
       "coordinates":  [ -85.6689414,38.3352396 ]
    },
    "properties": {
    "FIELD1":140,
    "NAME":"Louisville/Jefferson County, KY-IN",
    "ENTRE":153,
    "IMMIG":222,
    "ImmiEnter":18,
    "TOTAL":3142,
    "GEOID":31140,
    "variable":"IMMIGRate",
    "RATE":7.06556333545512
    }
  },
  {
    "type": "Feature",
    "geometry": {
       "type": "Point",
       "coordinates":  [ -85.2164239,41.0069993 ]
    },
    "properties": {
    "FIELD1":141,
    "NAME":"Fort Wayne, IN",
    "ENTRE":65,
    "IMMIG":74,
    "ImmiEnter":16,
    "TOTAL":1066,
    "GEOID":23060,
    "variable":"IMMIGRate",
    "RATE":6.94183864915572
    }
  },
  {
    "type": "Feature",
    "geometry": {
       "type": "Point",
       "coordinates":  [ -84.4385721,38.102844 ]
    },
    "properties": {
    "FIELD1":142,
    "NAME":"Lexington-Fayette, KY",
    "ENTRE":75,
    "IMMIG":160,
    "ImmiEnter":10,
    "TOTAL":1348,
    "GEOID":30460,
    "variable":"IMMIGRate",
    "RATE":11.8694362017804
    }
  },
  {
    "type": "Feature",
    "geometry": {
       "type": "Point",
       "coordinates":  [ -83.8446336,42.2523272 ]
    },
    "properties": {
    "FIELD1":143,
    "NAME":"Ann Arbor, MI",
    "ENTRE":49,
    "IMMIG":98,
    "ImmiEnter":0,
    "TOTAL":656,
    "GEOID":11460,
    "variable":"IMMIGRate",
    "RATE":14.9390243902439
    }
  },
  {
    "type": "Feature",
    "geometry": {
       "type": "Point",
       "coordinates":  [ -83.8184973,34.3175876 ]
    },
    "properties": {
    "FIELD1":144,
    "NAME":"Gainesville, GA",
    "ENTRE":21,
    "IMMIG":88,
    "ImmiEnter":3,
    "TOTAL":448,
    "GEOID":23580,
    "variable":"IMMIGRate",
    "RATE":19.6428571428571
    }
  },
  {
    "type": "Feature",
    "geometry": {
       "type": "Point",
       "coordinates":  [ -83.7143131,32.8561967 ]
    },
    "properties": {
    "FIELD1":145,
    "NAME":"Macon, GA",
    "ENTRE":26,
    "IMMIG":16,
    "ImmiEnter":0,
    "TOTAL":440,
    "GEOID":31420,
    "variable":"IMMIGRate",
    "RATE":3.63636363636364
    }
  },
  {
    "type": "Feature",
    "geometry": {
       "type": "Point",
       "coordinates":  [ -83.7063718,43.0210768 ]
    },
    "properties": {
    "FIELD1":146,
    "NAME":"Flint, MI",
    "ENTRE":37,
    "IMMIG":13,
    "ImmiEnter":0,
    "TOTAL":728,
    "GEOID":22420,
    "variable":"IMMIGRate",
    "RATE":1.78571428571429
    }
  },
  {
    "type": "Feature",
    "geometry": {
       "type": "Point",
       "coordinates":  [ -83.4871059,41.916097 ]
    },
    "properties": {
    "FIELD1":147,
    "NAME":"Monroe, MI",
    "ENTRE":23,
    "IMMIG":7,
    "ImmiEnter":0,
    "TOTAL":596,
    "GEOID":33780,
    "variable":"IMMIGRate",
    "RATE":1.1744966442953
    }
  },
  {
    "type": "Feature",
    "geometry": {
       "type": "Point",
       "coordinates":  [ -83.2008463,42.7218478 ]
    },
    "properties": {
    "FIELD1":148,
    "NAME":"Detroit-Warren-Dearborn, MI",
    "ENTRE":431,
    "IMMIG":1136,
    "ImmiEnter":71,
    "TOTAL":9103,
    "GEOID":19820,
    "variable":"IMMIGRate",
    "RATE":12.4794023948149
    }
  },
  {
    "type": "Feature",
    "geometry": {
       "type": "Point",
       "coordinates":  [ -82.6816145,35.5956693 ]
    },
    "properties": {
    "FIELD1":149,
    "NAME":"Asheville, NC",
    "ENTRE":83,
    "IMMIG":88,
    "ImmiEnter":6,
    "TOTAL":890,
    "GEOID":11700,
    "variable":"IMMIGRate",
    "RATE":9.8876404494382
    }
  },
  {
    "type": "Feature",
    "geometry": {
       "type": "Point",
       "coordinates":  [ -82.4799713,29.6779808 ]
    },
    "properties": {
    "FIELD1":150,
    "NAME":"Gainesville, FL",
    "ENTRE":26,
    "IMMIG":79,
    "ImmiEnter":2,
    "TOTAL":505,
    "GEOID":23540,
    "variable":"IMMIGRate",
    "RATE":15.6435643564356
    }
  },
  {
    "type": "Feature",
    "geometry": {
       "type": "Point",
       "coordinates":  [ -82.4134227,34.6837085 ]
    },
    "properties": {
    "FIELD1":151,
    "NAME":"Greenville-Anderson-Mauldin, SC",
    "ENTRE":145,
    "IMMIG":168,
    "ImmiEnter":10,
    "TOTAL":2564,
    "GEOID":24860,
    "variable":"IMMIGRate",
    "RATE":6.55226209048362
    }
  },
  {
    "type": "Feature",
    "geometry": {
       "type": "Point",
       "coordinates":  [ -81.4570667,35.8146669 ]
    },
    "properties": {
    "FIELD1":152,
    "NAME":"Hickory-Lenoir-Morganton, NC",
    "ENTRE":39,
    "IMMIG":50,
    "ImmiEnter":5,
    "TOTAL":658,
    "GEOID":25860,
    "variable":"IMMIGRate",
    "RATE":7.59878419452887
    }
  },
  {
    "type": "Feature",
    "geometry": {
       "type": "Point",
       "coordinates":  [ -81.3501104,41.1466395 ]
    },
    "properties": {
    "FIELD1":153,
    "NAME":"Akron, OH",
    "ENTRE":67,
    "IMMIG":80,
    "ImmiEnter":6,
    "TOTAL":1316,
    "GEOID":10420,
    "variable":"IMMIGRate",
    "RATE":6.0790273556231
    }
  },
  {
    "type": "Feature",
    "geometry": {
       "type": "Point",
       "coordinates":  [ -81.1890231,29.1789002 ]
    },
    "properties": {
    "FIELD1":154,
    "NAME":"Deltona-Daytona Beach-Ormond Beach, FL",
    "ENTRE":78,
    "IMMIG":77,
    "ImmiEnter":5,
    "TOTAL":1144,
    "GEOID":19660,
    "variable":"IMMIGRate",
    "RATE":6.73076923076923
    }
  },
  {
    "type": "Feature",
    "geometry": {
       "type": "Point",
       "coordinates":  [ -80.8308775,32.3867916 ]
    },
    "properties": {
    "FIELD1":155,
    "NAME":"Hilton Head Island-Bluffton-Beaufort, SC",
    "ENTRE":46,
    "IMMIG":74,
    "ImmiEnter":4,
    "TOTAL":557,
    "GEOID":25940,
    "variable":"IMMIGRate",
    "RATE":13.2854578096948
    }
  },
  {
    "type": "Feature",
    "geometry": {
       "type": "Point",
       "coordinates":  [ -80.4787552,26.1018281 ]
    },
    "properties": {
    "FIELD1":156,
    "NAME":"Miami-Fort Lauderdale-West Palm Beach, FL",
    "ENTRE":1196,
    "IMMIG":5709,
    "ImmiEnter":720,
    "TOTAL":11426,
    "GEOID":33100,
    "variable":"IMMIGRate",
    "RATE":49.9649921232277
    }
  },
  {
    "type": "Feature",
    "geometry": {
       "type": "Point",
       "coordinates":  [ -80.0963858,42.1179519 ]
    },
    "properties": {
    "FIELD1":157,
    "NAME":"Erie, PA",
    "ENTRE":18,
    "IMMIG":35,
    "ImmiEnter":0,
    "TOTAL":526,
    "GEOID":21500,
    "variable":"IMMIGRate",
    "RATE":6.65399239543726
    }
  },
  {
    "type": "Feature",
    "geometry": {
       "type": "Point",
       "coordinates":  [ -79.8060793,34.1537745 ]
    },
    "properties": {
    "FIELD1":158,
    "NAME":"Florence, SC",
    "ENTRE":18,
    "IMMIG":7,
    "ImmiEnter":0,
    "TOTAL":399,
    "GEOID":22500,
    "variable":"IMMIGRate",
    "RATE":1.75438596491228
    }
  },
  {
    "type": "Feature",
    "geometry": {
       "type": "Point",
       "coordinates":  [ -79.8019121,39.5251551 ]
    },
    "properties": {
    "FIELD1":159,
    "NAME":"Morgantown, WV",
    "ENTRE":38,
    "IMMIG":63,
    "ImmiEnter":0,
    "TOTAL":1258,
    "GEOID":34060,
    "variable":"IMMIGRate",
    "RATE":5.00794912559618
    }
  },
  {
    "type": "Feature",
    "geometry": {
       "type": "Point",
       "coordinates":  [ -79.7926333,36.0252039 ]
    },
    "properties": {
    "FIELD1":160,
    "NAME":"Greensboro-High Point, NC",
    "ENTRE":68,
    "IMMIG":212,
    "ImmiEnter":14,
    "TOTAL":1395,
    "GEOID":24660,
    "variable":"IMMIGRate",
    "RATE":15.1971326164875
    }
  },
  {
    "type": "Feature",
    "geometry": {
       "type": "Point",
       "coordinates":  [ -79.0969897,35.995536 ]
    },
    "properties": {
    "FIELD1":161,
    "NAME":"Durham-Chapel Hill, NC",
    "ENTRE":74,
    "IMMIG":234,
    "ImmiEnter":10,
    "TOTAL":1268,
    "GEOID":20500,
    "variable":"IMMIGRate",
    "RATE":18.4542586750789
    }
  },
  {
    "type": "Feature",
    "geometry": {
       "type": "Point",
       "coordinates":  [ -78.9822092,35.0379563 ]
    },
    "properties": {
    "FIELD1":162,
    "NAME":"Fayetteville, NC",
    "ENTRE":8,
    "IMMIG":22,
    "ImmiEnter":0,
    "TOTAL":589,
    "GEOID":22180,
    "variable":"IMMIGRate",
    "RATE":3.73514431239389
    }
  },
  {
    "type": "Feature",
    "geometry": {
       "type": "Point",
       "coordinates":  [ -78.0086695,35.3541896 ]
    },
    "properties": {
    "FIELD1":163,
    "NAME":"Goldsboro, NC",
    "ENTRE":9,
    "IMMIG":98,
    "ImmiEnter":4,
    "TOTAL":501,
    "GEOID":24140,
    "variable":"IMMIGRate",
    "RATE":19.560878243513
    }
  },
  {
    "type": "Feature",
    "geometry": {
       "type": "Point",
       "coordinates":  [ -77.8997669,39.5421519 ]
    },
    "properties": {
    "FIELD1":164,
    "NAME":"Hagerstown-Martinsburg, MD-WV",
    "ENTRE":88,
    "IMMIG":69,
    "ImmiEnter":11,
    "TOTAL":1416,
    "GEOID":25180,
    "variable":"IMMIGRate",
    "RATE":4.8728813559322
    }
  },
  {
    "type": "Feature",
    "geometry": {
       "type": "Point",
       "coordinates":  [ -77.373138,35.592965 ]
    },
    "properties": {
    "FIELD1":165,
    "NAME":"Greenville, NC",
    "ENTRE":21,
    "IMMIG":37,
    "ImmiEnter":0,
    "TOTAL":502,
    "GEOID":24780,
    "variable":"IMMIGRate",
    "RATE":7.37051792828685
    }
  },
  {
    "type": "Feature",
    "geometry": {
       "type": "Point",
       "coordinates":  [ -77.0504748,40.3359242 ]
    },
    "properties": {
    "FIELD1":166,
    "NAME":"Harrisburg-Carlisle, PA",
    "ENTRE":30,
    "IMMIG":107,
    "ImmiEnter":6,
    "TOTAL":1172,
    "GEOID":25420,
    "variable":"IMMIGRate",
    "RATE":9.1296928327645
    }
  },
  {
    "type": "Feature",
    "geometry": {
       "type": "Point",
       "coordinates":  [ -75.5029819,39.0970884 ]
    },
    "properties": {
    "FIELD1":167,
    "NAME":"Dover, DE",
    "ENTRE":115,
    "IMMIG":184,
    "ImmiEnter":22,
    "TOTAL":1998,
    "GEOID":20100,
    "variable":"IMMIGRate",
    "RATE":9.20920920920921
    }
  },
  {
    "type": "Feature",
    "geometry": {
       "type": "Point",
       "coordinates":  [ -75.398158,40.7893392 ]
    },
    "properties": {
    "FIELD1":168,
    "NAME":"Allentown-Bethlehem-Easton, PA-NJ",
    "ENTRE":73,
    "IMMIG":137,
    "ImmiEnter":11,
    "TOTAL":1408,
    "GEOID":10900,
    "variable":"IMMIGRate",
    "RATE":9.73011363636364
    }
  },
  {
    "type": "Feature",
    "geometry": {
       "type": "Point",
       "coordinates":  [ -75.3290651,41.0562401 ]
    },
    "properties": {
    "FIELD1":169,
    "NAME":"East Stroudsburg, PA",
    "ENTRE":53,
    "IMMIG":65,
    "ImmiEnter":4,
    "TOTAL":537,
    "GEOID":20700,
    "variable":"IMMIGRate",
    "RATE":12.1042830540037
    }
  },
  {
    "type": "Feature",
    "geometry": {
       "type": "Point",
       "coordinates":  [ -73.9423479,42.7879202 ]
    },
    "properties": {
    "FIELD1":170,
    "NAME":"Albany-Schenectady-Troy, NY",
    "ENTRE":61,
    "IMMIG":127,
    "ImmiEnter":2,
    "TOTAL":1643,
    "GEOID":10580,
    "variable":"IMMIGRate",
    "RATE":7.72976262933658
    }
  },
  {
    "type": "Feature",
    "geometry": {
       "type": "Point",
       "coordinates":  [ -73.6367573,43.4404503 ]
    },
    "properties": {
    "FIELD1":171,
    "NAME":"Glens Falls, NY",
    "ENTRE":25,
    "IMMIG":10,
    "ImmiEnter":0,
    "TOTAL":471,
    "GEOID":24020,
    "variable":"IMMIGRate",
    "RATE":2.12314225053079
    }
  },
  {
    "type": "Feature",
    "geometry": {
       "type": "Point",
       "coordinates":  [ -72.5739417,41.718601 ]
    },
    "properties": {
    "FIELD1":172,
    "NAME":"Hartford-West Hartford-East Hartford, CT",
    "ENTRE":154,
    "IMMIG":388,
    "ImmiEnter":16,
    "TOTAL":3073,
    "GEOID":25540,
    "variable":"IMMIGRate",
    "RATE":12.626098275301
    }
  },
  {
    "type": "Feature",
    "geometry": {
       "type": "Point",
       "coordinates":  [ -71.7231012,42.9116429 ]
    },
    "properties": {
    "FIELD1":173,
    "NAME":"Manchester-Nashua, NH",
    "ENTRE":229,
    "IMMIG":474,
    "ImmiEnter":25,
    "TOTAL":3865,
    "GEOID":31700,
    "variable":"IMMIGRate",
    "RATE":12.2639068564036
    }
  },
  {
    "type": "Feature",
    "geometry": {
       "type": "Point",
       "coordinates":  [ -81.9828327,33.4603713 ]
    },
    "properties": {
    "FIELD1":174,
    "NAME":"Augusta-Richmond County, GA-SC",
    "ENTRE":68,
    "IMMIG":54,
    "ImmiEnter":4,
    "TOTAL":1259,
    "GEOID":12260,
    "variable":"IMMIGRate",
    "RATE":4.28911834789516
    }
  },
  {
    "type": "Feature",
    "geometry": {
       "type": "Point",
       "coordinates":  [ -81.8925086,26.5516337 ]
    },
    "properties": {
    "FIELD1":175,
    "NAME":"Cape Coral-Fort Myers, FL",
    "ENTRE":85,
    "IMMIG":264,
    "ImmiEnter":15,
    "TOTAL":1286,
    "GEOID":15980,
    "variable":"IMMIGRate",
    "RATE":20.5287713841369
    }
  },
  {
    "type": "Feature",
    "geometry": {
       "type": "Point",
       "coordinates":  [ -81.2614743,40.7110722 ]
    },
    "properties": {
    "FIELD1":176,
    "NAME":"Canton-Massillon, OH",
    "ENTRE":38,
    "IMMIG":5,
    "ImmiEnter":3,
    "TOTAL":852,
    "GEOID":15940,
    "variable":"IMMIGRate",
    "RATE":0.586854460093897
    }
  },
  {
    "type": "Feature",
    "geometry": {
       "type": "Point",
       "coordinates":  [ -81.0405973,34.084175 ]
    },
    "properties": {
    "FIELD1":177,
    "NAME":"Columbia, SC",
    "ENTRE":146,
    "IMMIG":103,
    "ImmiEnter":12,
    "TOTAL":2411,
    "GEOID":17900,
    "variable":"IMMIGRate",
    "RATE":4.27208627125674
    }
  },
  {
    "type": "Feature",
    "geometry": {
       "type": "Point",
       "coordinates":  [ -77.7244974,39.9266851 ]
    },
    "properties": {
    "FIELD1":178,
    "NAME":"Chambersburg-Waynesboro, PA",
    "ENTRE":32,
    "IMMIG":26,
    "ImmiEnter":0,
    "TOTAL":503,
    "GEOID":16540,
    "variable":"IMMIGRate",
    "RATE":5.16898608349901
    }
  },
  {
    "type": "Feature",
    "geometry": {
       "type": "Point",
       "coordinates":  [ -76.0229431,42.1639276 ]
    },
    "properties": {
    "FIELD1":179,
    "NAME":"Binghamton, NY",
    "ENTRE":46,
    "IMMIG":31,
    "ImmiEnter":7,
    "TOTAL":975,
    "GEOID":13780,
    "variable":"IMMIGRate",
    "RATE":3.17948717948718
    }
  },
  {
    "type": "Feature",
    "geometry": {
       "type": "Point",
       "coordinates":  [ -156.6015502,20.8559308 ]
    },
    "properties": {
    "FIELD1":180,
    "NAME":"Kahului-Wailuku-Lahaina, HI",
    "ENTRE":134,
    "IMMIG":371,
    "ImmiEnter":26,
    "TOTAL":1435,
    "GEOID":27980,
    "variable":"IMMIGRate",
    "RATE":25.8536585365854
    }
  },
  {
    "type": "Feature",
    "geometry": {
       "type": "Point",
       "coordinates":  [ -121.6019188,39.6659588 ]
    },
    "properties": {
    "FIELD1":181,
    "NAME":"Chico, CA",
    "ENTRE":23,
    "IMMIG":54,
    "ImmiEnter":0,
    "TOTAL":610,
    "GEOID":17020,
    "variable":"IMMIGRate",
    "RATE":8.85245901639344
    }
  },
  {
    "type": "Feature",
    "geometry": {
       "type": "Point",
       "coordinates":  [ -121.2255751,43.9151181 ]
    },
    "properties": {
    "FIELD1":182,
    "NAME":"Bend-Redmond, OR",
    "ENTRE":123,
    "IMMIG":47,
    "ImmiEnter":4,
    "TOTAL":994,
    "GEOID":13460,
    "variable":"IMMIGRate",
    "RATE":4.72837022132797
    }
  },
  {
    "type": "Feature",
    "geometry": {
       "type": "Point",
       "coordinates":  [ -119.2540809,46.363914 ]
    },
    "properties": {
    "FIELD1":183,
    "NAME":"Kennewick-Richland, WA",
    "ENTRE":45,
    "IMMIG":223,
    "ImmiEnter":14,
    "TOTAL":1010,
    "GEOID":28420,
    "variable":"IMMIGRate",
    "RATE":22.0792079207921
    }
  },
  {
    "type": "Feature",
    "geometry": {
       "type": "Point",
       "coordinates":  [ -118.7295064,35.3466288 ]
    },
    "properties": {
    "FIELD1":184,
    "NAME":"Bakersfield, CA",
    "ENTRE":72,
    "IMMIG":489,
    "ImmiEnter":23,
    "TOTAL":1463,
    "GEOID":12540,
    "variable":"IMMIGRate",
    "RATE":33.4244702665755
    }
  },
  {
    "type": "Feature",
    "geometry": {
       "type": "Point",
       "coordinates":  [ -116.6949184,47.6771129 ]
    },
    "properties": {
    "FIELD1":185,
    "NAME":"Coeur d'Alene, ID",
    "ENTRE":167,
    "IMMIG":23,
    "ImmiEnter":0,
    "TOTAL":1400,
    "GEOID":17660,
    "variable":"IMMIGRate",
    "RATE":1.64285714285714
    }
  },
  {
    "type": "Feature",
    "geometry": {
       "type": "Point",
       "coordinates":  [ -116.1419089,43.0066485 ]
    },
    "properties": {
    "FIELD1":186,
    "NAME":"Boise City, ID",
    "ENTRE":513,
    "IMMIG":558,
    "ImmiEnter":33,
    "TOTAL":6153,
    "GEOID":14260,
    "variable":"IMMIGRate",
    "RATE":9.068746952706
    }
  },
  {
    "type": "Feature",
    "geometry": {
       "type": "Point",
       "coordinates":  [ -115.013812,36.2142575 ]
    },
    "properties": {
    "FIELD1":187,
    "NAME":"Las Vegas-Henderson-Paradise, NV",
    "ENTRE":376,
    "IMMIG":2262,
    "ImmiEnter":99,
    "TOTAL":8248,
    "GEOID":29820,
    "variable":"IMMIGRate",
    "RATE":27.4248302618817
    }
  },
  {
    "type": "Feature",
    "geometry": {
       "type": "Point",
       "coordinates":  [ -112.4208422,43.6205362 ]
    },
    "properties": {
    "FIELD1":188,
    "NAME":"Idaho Falls, ID",
    "ENTRE":76,
    "IMMIG":82,
    "ImmiEnter":7,
    "TOTAL":926,
    "GEOID":26820,
    "variable":"IMMIGRate",
    "RATE":8.85529157667387
    }
  },
  {
    "type": "Feature",
    "geometry": {
       "type": "Point",
       "coordinates":  [ -108.7278711,45.7754535 ]
    },
    "properties": {
    "FIELD1":189,
    "NAME":"Billings, MT",
    "ENTRE":201,
    "IMMIG":53,
    "ImmiEnter":0,
    "TOTAL":2537,
    "GEOID":13740,
    "variable":"IMMIGRate",
    "RATE":2.08908159243201
    }
  },
  {
    "type": "Feature",
    "geometry": {
       "type": "Point",
       "coordinates":  [ -106.8321821,32.3509119 ]
    },
    "properties": {
    "FIELD1":190,
    "NAME":"Las Cruces, NM",
    "ENTRE":129,
    "IMMIG":446,
    "ImmiEnter":67,
    "TOTAL":1590,
    "GEOID":29740,
    "variable":"IMMIGRate",
    "RATE":28.0503144654088
    }
  },
  {
    "type": "Feature",
    "geometry": {
       "type": "Point",
       "coordinates":  [ -105.3976911,40.0949699 ]
    },
    "properties": {
    "FIELD1":191,
    "NAME":"Boulder, CO",
    "ENTRE":56,
    "IMMIG":127,
    "ImmiEnter":10,
    "TOTAL":706,
    "GEOID":14500,
    "variable":"IMMIGRate",
    "RATE":17.9886685552408
    }
  },
  {
    "type": "Feature",
    "geometry": {
       "type": "Point",
       "coordinates":  [ -104.6385633,38.8454651 ]
    },
    "properties": {
    "FIELD1":192,
    "NAME":"Colorado Springs, CO",
    "ENTRE":121,
    "IMMIG":107,
    "ImmiEnter":10,
    "TOTAL":1374,
    "GEOID":17820,
    "variable":"IMMIGRate",
    "RATE":7.78748180494905
    }
  },
  {
    "type": "Feature",
    "geometry": {
       "type": "Point",
       "coordinates":  [ -99.3407518,27.7607987 ]
    },
    "properties": {
    "FIELD1":193,
    "NAME":"Laredo, TX",
    "ENTRE":25,
    "IMMIG":204,
    "ImmiEnter":13,
    "TOTAL":462,
    "GEOID":29700,
    "variable":"IMMIGRate",
    "RATE":44.1558441558442
    }
  },
  {
    "type": "Feature",
    "geometry": {
       "type": "Point",
       "coordinates":  [ -97.7896384,31.2027301 ]
    },
    "properties": {
    "FIELD1":194,
    "NAME":"Killeen-Temple, TX",
    "ENTRE":32,
    "IMMIG":156,
    "ImmiEnter":8,
    "TOTAL":757,
    "GEOID":28660,
    "variable":"IMMIGRate",
    "RATE":20.6076618229855
    }
  },
  {
    "type": "Feature",
    "geometry": {
       "type": "Point",
       "coordinates":  [ -97.6912697,30.2395128 ]
    },
    "properties": {
    "FIELD1":195,
    "NAME":"Austin-Round Rock, TX",
    "ENTRE":307,
    "IMMIG":1031,
    "ImmiEnter":55,
    "TOTAL":4397,
    "GEOID":12420,
    "variable":"IMMIGRate",
    "RATE":23.4478053218103
    }
  },
  {
    "type": "Feature",
    "geometry": {
       "type": "Point",
       "coordinates":  [ -97.4789584,26.1029227 ]
    },
    "properties": {
    "FIELD1":196,
    "NAME":"Brownsville-Harlingen, TX",
    "ENTRE":27,
    "IMMIG":132,
    "ImmiEnter":17,
    "TOTAL":549,
    "GEOID":15180,
    "variable":"IMMIGRate",
    "RATE":24.0437158469945
    }
  },
  {
    "type": "Feature",
    "geometry": {
       "type": "Point",
       "coordinates":  [ -97.4012355,27.8989315 ]
    },
    "properties": {
    "FIELD1":197,
    "NAME":"Corpus Christi, TX",
    "ENTRE":23,
    "IMMIG":112,
    "ImmiEnter":9,
    "TOTAL":669,
    "GEOID":18580,
    "variable":"IMMIGRate",
    "RATE":16.7414050822123
    }
  },
  {
    "type": "Feature",
    "geometry": {
       "type": "Point",
       "coordinates":  [ -97.0251332,32.8225581 ]
    },
    "properties": {
    "FIELD1":198,
    "NAME":"Dallas-Fort Worth-Arlington, TX",
    "ENTRE":894,
    "IMMIG":3386,
    "ImmiEnter":291,
    "TOTAL":13503,
    "GEOID":19100,
    "variable":"IMMIGRate",
    "RATE":25.0759090572465
    }
  },
  {
    "type": "Feature",
    "geometry": {
       "type": "Point",
       "coordinates":  [ -96.4885368,30.7543917 ]
    },
    "properties": {
    "FIELD1":199,
    "NAME":"College Station-Bryan, TX",
    "ENTRE":28,
    "IMMIG":101,
    "ImmiEnter":7,
    "TOTAL":479,
    "GEOID":17780,
    "variable":"IMMIGRate",
    "RATE":21.0855949895616
    }
  },
  {
    "type": "Feature",
    "geometry": {
       "type": "Point",
       "coordinates":  [ -94.4438241,38.9318494 ]
    },
    "properties": {
    "FIELD1":200,
    "NAME":"Kansas City, MO-KS",
    "ENTRE":295,
    "IMMIG":529,
    "ImmiEnter":18,
    "TOTAL":6042,
    "GEOID":28140,
    "variable":"IMMIGRate",
    "RATE":8.75537901357167
    }
  },
  {
    "type": "Feature",
    "geometry": {
       "type": "Point",
       "coordinates":  [ -94.1203707,30.3478326 ]
    },
    "properties": {
    "FIELD1":201,
    "NAME":"Beaumont-Port Arthur, TX",
    "ENTRE":43,
    "IMMIG":90,
    "ImmiEnter":5,
    "TOTAL":707,
    "GEOID":13140,
    "variable":"IMMIGRate",
    "RATE":12.7298444130127
    }
  },
  {
    "type": "Feature",
    "geometry": {
       "type": "Point",
       "coordinates":  [ -93.2532434,29.9787547 ]
    },
    "properties": {
    "FIELD1":202,
    "NAME":"Lake Charles, LA",
    "ENTRE":54,
    "IMMIG":24,
    "ImmiEnter":1,
    "TOTAL":1050,
    "GEOID":29340,
    "variable":"IMMIGRate",
    "RATE":2.28571428571429
    }
  },
  {
    "type": "Feature",
    "geometry": {
       "type": "Point",
       "coordinates":  [ -92.0493498,29.9577733 ]
    },
    "properties": {
    "FIELD1":203,
    "NAME":"Lafayette, LA",
    "ENTRE":186,
    "IMMIG":147,
    "ImmiEnter":48,
    "TOTAL":2338,
    "GEOID":29180,
    "variable":"IMMIGRate",
    "RATE":6.2874251497006
    }
  },
  {
    "type": "Feature",
    "geometry": {
       "type": "Point",
       "coordinates":  [ -91.6479303,41.5178058 ]
    },
    "properties": {
    "FIELD1":204,
    "NAME":"Iowa City, IA",
    "ENTRE":52,
    "IMMIG":108,
    "ImmiEnter":10,
    "TOTAL":621,
    "GEOID":26980,
    "variable":"IMMIGRate",
    "RATE":17.3913043478261
    }
  },
  {
    "type": "Feature",
    "geometry": {
       "type": "Point",
       "coordinates":  [ -91.6304799,42.0856026 ]
    },
    "properties": {
    "FIELD1":205,
    "NAME":"Cedar Rapids, IA",
    "ENTRE":28,
    "IMMIG":37,
    "ImmiEnter":0,
    "TOTAL":618,
    "GEOID":16300,
    "variable":"IMMIGRate",
    "RATE":5.98705501618123
    }
  },
  {
    "type": "Feature",
    "geometry": {
       "type": "Point",
       "coordinates":  [ -91.134533,30.5708895 ]
    },
    "properties": {
    "FIELD1":206,
    "NAME":"Baton Rouge, LA",
    "ENTRE":245,
    "IMMIG":262,
    "ImmiEnter":24,
    "TOTAL":3582,
    "GEOID":12940,
    "variable":"IMMIGRate",
    "RATE":7.3143495254048
    }
  },
  {
    "type": "Feature",
    "geometry": {
       "type": "Point",
       "coordinates":  [ -90.460076,41.3916799 ]
    },
    "properties": {
    "FIELD1":207,
    "NAME":"Davenport-Moline-Rock Island, IA-IL",
    "ENTRE":52,
    "IMMIG":57,
    "ImmiEnter":0,
    "TOTAL":979,
    "GEOID":19340,
    "variable":"IMMIGRate",
    "RATE":5.82226762002043
    }
  },
  {
    "type": "Feature",
    "geometry": {
       "type": "Point",
       "coordinates":  [ -90.2208402,32.3160014 ]
    },
    "properties": {
    "FIELD1":208,
    "NAME":"Jackson, MS",
    "ENTRE":219,
    "IMMIG":141,
    "ImmiEnter":21,
    "TOTAL":3134,
    "GEOID":27140,
    "variable":"IMMIGRate",
    "RATE":4.49904275686024
    }
  },
  {
    "type": "Feature",
    "geometry": {
       "type": "Point",
       "coordinates":  [ -89.193181,37.7573308 ]
    },
    "properties": {
    "FIELD1":209,
    "NAME":"Carbondale-Marion, IL",
    "ENTRE":21,
    "IMMIG":9,
    "ImmiEnter":0,
    "TOTAL":291,
    "GEOID":16060,
    "variable":"IMMIGRate",
    "RATE":3.09278350515464
    }
  },
  {
    "type": "Feature",
    "geometry": {
       "type": "Point",
       "coordinates":  [ -89.0752844,42.6698802 ]
    },
    "properties": {
    "FIELD1":210,
    "NAME":"Janesville-Beloit, WI",
    "ENTRE":16,
    "IMMIG":13,
    "ImmiEnter":1,
    "TOTAL":433,
    "GEOID":27500,
    "variable":"IMMIGRate",
    "RATE":3.00230946882217
    }
  },
  {
    "type": "Feature",
    "geometry": {
       "type": "Point",
       "coordinates":  [ -88.8613074,40.4055934 ]
    },
    "properties": {
    "FIELD1":211,
    "NAME":"Bloomington, IL",
    "ENTRE":20,
    "IMMIG":28,
    "ImmiEnter":1,
    "TOTAL":457,
    "GEOID":14010,
    "variable":"IMMIGRate",
    "RATE":6.12691466083151
    }
  },
  {
    "type": "Feature",
    "geometry": {
       "type": "Point",
       "coordinates":  [ -88.2986226,40.2344885 ]
    },
    "properties": {
    "FIELD1":212,
    "NAME":"Champaign-Urbana, IL",
    "ENTRE":30,
    "IMMIG":77,
    "ImmiEnter":0,
    "TOTAL":527,
    "GEOID":16580,
    "variable":"IMMIGRate",
    "RATE":14.6110056925996
    }
  },
  {
    "type": "Feature",
    "geometry": {
       "type": "Point",
       "coordinates":  [ -87.8282967,41.8235214 ]
    },
    "properties": {
    "FIELD1":213,
    "NAME":"Chicago-Naperville-Elgin, IL-IN-WI",
    "ENTRE":1061,
    "IMMIG":4287,
    "ImmiEnter":321,
    "TOTAL":19074,
    "GEOID":16980,
    "variable":"IMMIGRate",
    "RATE":22.4756212645486
    }
  },
  {
    "type": "Feature",
    "geometry": {
       "type": "Point",
       "coordinates":  [ -87.7460666,30.6592183 ]
    },
    "properties": {
    "FIELD1":214,
    "NAME":"Daphne-Fairhope-Foley, AL",
    "ENTRE":70,
    "IMMIG":60,
    "ImmiEnter":2,
    "TOTAL":1141,
    "GEOID":19300,
    "variable":"IMMIGRate",
    "RATE":5.25854513584575
    }
  },
  {
    "type": "Feature",
    "geometry": {
       "type": "Point",
       "coordinates":  [ -87.5582833,36.7492073 ]
    },
    "properties": {
    "FIELD1":215,
    "NAME":"Clarksville, TN-KY",
    "ENTRE":46,
    "IMMIG":70,
    "ImmiEnter":3,
    "TOTAL":1109,
    "GEOID":17300,
    "variable":"IMMIGRate",
    "RATE":6.31199278629396
    }
  },
  {
    "type": "Feature",
    "geometry": {
       "type": "Point",
       "coordinates":  [ -86.9304622,40.5147241 ]
    },
    "properties": {
    "FIELD1":216,
    "NAME":"Lafayette-West Lafayette, IN",
    "ENTRE":4,
    "IMMIG":24,
    "ImmiEnter":1,
    "TOTAL":402,
    "GEOID":29200,
    "variable":"IMMIGRate",
    "RATE":5.97014925373134
    }
  },
  {
    "type": "Feature",
    "geometry": {
       "type": "Point",
       "coordinates":  [ -86.8143378,33.4623718 ]
    },
    "properties": {
    "FIELD1":217,
    "NAME":"Birmingham-Hoover, AL",
    "ENTRE":216,
    "IMMIG":212,
    "ImmiEnter":30,
    "TOTAL":4478,
    "GEOID":13820,
    "variable":"IMMIGRate",
    "RATE":4.73425636444841
    }
  },
  {
    "type": "Feature",
    "geometry": {
       "type": "Point",
       "coordinates":  [ -86.7348706,34.7832617 ]
    },
    "properties": {
    "FIELD1":218,
    "NAME":"Huntsville, AL",
    "ENTRE":130,
    "IMMIG":161,
    "ImmiEnter":12,
    "TOTAL":1850,
    "GEOID":26620,
    "variable":"IMMIGRate",
    "RATE":8.7027027027027
    }
  },
  {
    "type": "Feature",
    "geometry": {
       "type": "Point",
       "coordinates":  [ -86.6717544,39.2417362 ]
    },
    "properties": {
    "FIELD1":219,
    "NAME":"Bloomington, IN",
    "ENTRE":28,
    "IMMIG":23,
    "ImmiEnter":4,
    "TOTAL":335,
    "GEOID":14020,
    "variable":"IMMIGRate",
    "RATE":6.86567164179105
    }
  },
  {
    "type": "Feature",
    "geometry": {
       "type": "Point",
       "coordinates":  [ -86.3970677,37.0468214 ]
    },
    "properties": {
    "FIELD1":220,
    "NAME":"Bowling Green, KY",
    "ENTRE":33,
    "IMMIG":49,
    "ImmiEnter":0,
    "TOTAL":494,
    "GEOID":14540,
    "variable":"IMMIGRate",
    "RATE":9.91902834008097
    }
  },
  {
    "type": "Feature",
    "geometry": {
       "type": "Point",
       "coordinates":  [ -86.2045408,39.7449323 ]
    },
    "properties": {
    "FIELD1":221,
    "NAME":"Indianapolis-Carmel-Anderson, IN",
    "ENTRE":291,
    "IMMIG":401,
    "ImmiEnter":22,
    "TOTAL":4474,
    "GEOID":26900,
    "variable":"IMMIGRate",
    "RATE":8.96289673670094
    }
  },
  {
    "type": "Feature",
    "geometry": {
       "type": "Point",
       "coordinates":  [ -86.0373725,42.2688708 ]
    },
    "properties": {
    "FIELD1":222,
    "NAME":"Kalamazoo-Portage, MI",
    "ENTRE":37,
    "IMMIG":16,
    "ImmiEnter":0,
    "TOTAL":707,
    "GEOID":28020,
    "variable":"IMMIGRate",
    "RATE":2.26308345120226
    }
  },
  {
    "type": "Feature",
    "geometry": {
       "type": "Point",
       "coordinates":  [ -85.3611582,35.0493612 ]
    },
    "properties": {
    "FIELD1":223,
    "NAME":"Chattanooga, TN-GA",
    "ENTRE":62,
    "IMMIG":123,
    "ImmiEnter":13,
    "TOTAL":1463,
    "GEOID":16860,
    "variable":"IMMIGRate",
    "RATE":8.40738209159262
    }
  },
  {
    "type": "Feature",
    "geometry": {
       "type": "Point",
       "coordinates":  [ -85.3530477,32.6040644 ]
    },
    "properties": {
    "FIELD1":224,
    "NAME":"Auburn-Opelika, AL",
    "ENTRE":48,
    "IMMIG":44,
    "ImmiEnter":2,
    "TOTAL":916,
    "GEOID":12220,
    "variable":"IMMIGRate",
    "RATE":4.80349344978166
    }
  },
  {
    "type": "Feature",
    "geometry": {
       "type": "Point",
       "coordinates":  [ -85.0123853,42.2429896 ]
    },
    "properties": {
    "FIELD1":225,
    "NAME":"Battle Creek, MI",
    "ENTRE":25,
    "IMMIG":36,
    "ImmiEnter":0,
    "TOTAL":584,
    "GEOID":12980,
    "variable":"IMMIGRate",
    "RATE":6.16438356164384
    }
  },
  {
    "type": "Feature",
    "geometry": {
       "type": "Point",
       "coordinates":  [ -84.9008787,32.4368358 ]
    },
    "properties": {
    "FIELD1":226,
    "NAME":"Columbus, GA-AL",
    "ENTRE":20,
    "IMMIG":15,
    "ImmiEnter":2,
    "TOTAL":530,
    "GEOID":17980,
    "variable":"IMMIGRate",
    "RATE":2.83018867924528
    }
  },
  {
    "type": "Feature",
    "geometry": {
       "type": "Point",
       "coordinates":  [ -84.65507,35.1381292 ]
    },
    "properties": {
    "FIELD1":227,
    "NAME":"Cleveland, TN",
    "ENTRE":34,
    "IMMIG":5,
    "ImmiEnter":0,
    "TOTAL":584,
    "GEOID":17420,
    "variable":"IMMIGRate",
    "RATE":0.856164383561644
    }
  },
  {
    "type": "Feature",
    "geometry": {
       "type": "Point",
       "coordinates":  [ -84.6053717,42.7136586 ]
    },
    "properties": {
    "FIELD1":228,
    "NAME":"Lansing-East Lansing, MI",
    "ENTRE":55,
    "IMMIG":77,
    "ImmiEnter":0,
    "TOTAL":1000,
    "GEOID":29620,
    "variable":"IMMIGRate",
    "RATE":7.7
    }
  },
  {
    "type": "Feature",
    "geometry": {
       "type": "Point",
       "coordinates":  [ -84.4271533,39.0694579 ]
    },
    "properties": {
    "FIELD1":229,
    "NAME":"Cincinnati, OH-KY-IN",
    "ENTRE":253,
    "IMMIG":283,
    "ImmiEnter":20,
    "TOTAL":4531,
    "GEOID":17140,
    "variable":"IMMIGRate",
    "RATE":6.24586184065328
    }
  },
  {
    "type": "Feature",
    "geometry": {
       "type": "Point",
       "coordinates":  [ -84.4208679,42.2484738 ]
    },
    "properties": {
    "FIELD1":230,
    "NAME":"Jackson, MI",
    "ENTRE":44,
    "IMMIG":36,
    "ImmiEnter":0,
    "TOTAL":503,
    "GEOID":27100,
    "variable":"IMMIGRate",
    "RATE":7.15705765407555
    }
  },
  {
    "type": "Feature",
    "geometry": {
       "type": "Point",
       "coordinates":  [ -84.3999113,33.693728 ]
    },
    "properties": {
    "FIELD1":231,
    "NAME":"Atlanta-Sandy Springs-Roswell, GA",
    "ENTRE":825,
    "IMMIG":2141,
    "ImmiEnter":154,
    "TOTAL":11649,
    "GEOID":12060,
    "variable":"IMMIGRate",
    "RATE":18.3792600223195
    }
  },
  {
    "type": "Feature",
    "geometry": {
       "type": "Point",
       "coordinates":  [ -84.1418129,39.8288538 ]
    },
    "properties": {
    "FIELD1":232,
    "NAME":"Dayton, OH",
    "ENTRE":55,
    "IMMIG":76,
    "ImmiEnter":0,
    "TOTAL":1440,
    "GEOID":19380,
    "variable":"IMMIGRate",
    "RATE":5.27777777777778
    }
  },
  {
    "type": "Feature",
    "geometry": {
       "type": "Point",
       "coordinates":  [ -84.1361137,36.0444622 ]
    },
    "properties": {
    "FIELD1":233,
    "NAME":"Knoxville, TN",
    "ENTRE":131,
    "IMMIG":135,
    "ImmiEnter":5,
    "TOTAL":2251,
    "GEOID":28940,
    "variable":"IMMIGRate",
    "RATE":5.997334517992
    }
  },
  {
    "type": "Feature",
    "geometry": {
       "type": "Point",
       "coordinates":  [ -83.2138965,33.943984 ]
    },
    "properties": {
    "FIELD1":234,
    "NAME":"Athens-Clarke County, GA",
    "ENTRE":23,
    "IMMIG":36,
    "ImmiEnter":3,
    "TOTAL":338,
    "GEOID":12020,
    "variable":"IMMIGRate",
    "RATE":10.6508875739645
    }
  },
  {
    "type": "Feature",
    "geometry": {
       "type": "Point",
       "coordinates":  [ -82.8359105,39.9685617 ]
    },
    "properties": {
    "FIELD1":235,
    "NAME":"Columbus, OH",
    "ENTRE":178,
    "IMMIG":281,
    "ImmiEnter":33,
    "TOTAL":3706,
    "GEOID":18140,
    "variable":"IMMIGRate",
    "RATE":7.58229897463573
    }
  },
  {
    "type": "Feature",
    "geometry": {
       "type": "Point",
       "coordinates":  [ -82.4401446,36.6041611 ]
    },
    "properties": {
    "FIELD1":236,
    "NAME":"Kingsport-Bristol-Bristol, TN-VA",
    "ENTRE":42,
    "IMMIG":36,
    "ImmiEnter":4,
    "TOTAL":700,
    "GEOID":28700,
    "variable":"IMMIGRate",
    "RATE":5.14285714285714
    }
  },
  {
    "type": "Feature",
    "geometry": {
       "type": "Point",
       "coordinates":  [ -82.3851927,38.3736912 ]
    },
    "properties": {
    "FIELD1":237,
    "NAME":"Huntington-Ashland, WV-KY-OH",
    "ENTRE":77,
    "IMMIG":30,
    "ImmiEnter":2,
    "TOTAL":2229,
    "GEOID":26580,
    "variable":"IMMIGRate",
    "RATE":1.34589502018843
    }
  },
  {
    "type": "Feature",
    "geometry": {
       "type": "Point",
       "coordinates":  [ -82.3310257,36.2506085 ]
    },
    "properties": {
    "FIELD1":238,
    "NAME":"Johnson City, TN",
    "ENTRE":36,
    "IMMIG":26,
    "ImmiEnter":5,
    "TOTAL":543,
    "GEOID":27740,
    "variable":"IMMIGRate",
    "RATE":4.78821362799263
    }
  },
  {
    "type": "Feature",
    "geometry": {
       "type": "Point",
       "coordinates":  [ -81.7552353,30.2371049 ]
    },
    "properties": {
    "FIELD1":239,
    "NAME":"Jacksonville, FL",
    "ENTRE":186,
    "IMMIG":260,
    "ImmiEnter":31,
    "TOTAL":2872,
    "GEOID":27260,
    "variable":"IMMIGRate",
    "RATE":9.05292479108635
    }
  },
  {
    "type": "Feature",
    "geometry": {
       "type": "Point",
       "coordinates":  [ -81.6927831,27.9531147 ]
    },
    "properties": {
    "FIELD1":240,
    "NAME":"Lakeland-Winter Haven, FL",
    "ENTRE":69,
    "IMMIG":157,
    "ImmiEnter":24,
    "TOTAL":1075,
    "GEOID":29460,
    "variable":"IMMIGRate",
    "RATE":14.6046511627907
    }
  },
  {
    "type": "Feature",
    "geometry": {
       "type": "Point",
       "coordinates":  [ -81.7242168,41.760392 ]
    },
    "properties": {
    "FIELD1":241,
    "NAME":"Cleveland-Elyria, OH",
    "ENTRE":216,
    "IMMIG":246,
    "ImmiEnter":17,
    "TOTAL":4057,
    "GEOID":17460,
    "variable":"IMMIGRate",
    "RATE":6.06359378851368
    }
  },
  {
    "type": "Feature",
    "geometry": {
       "type": "Point",
       "coordinates":  [ -81.4925567,38.2832126 ]
    },
    "properties": {
    "FIELD1":242,
    "NAME":"Charleston, WV",
    "ENTRE":68,
    "IMMIG":27,
    "ImmiEnter":0,
    "TOTAL":1894,
    "GEOID":16620,
    "variable":"IMMIGRate",
    "RATE":1.42555438225977
    }
  },
  {
    "type": "Feature",
    "geometry": {
       "type": "Point",
       "coordinates":  [ -80.8674907,35.187295 ]
    },
    "properties": {
    "FIELD1":243,
    "NAME":"Charlotte-Concord-Gastonia, NC-SC",
    "ENTRE":398,
    "IMMIG":645,
    "ImmiEnter":76,
    "TOTAL":5411,
    "GEOID":16740,
    "variable":"IMMIGRate",
    "RATE":11.9201626316762
    }
  },
  {
    "type": "Feature",
    "geometry": {
       "type": "Point",
       "coordinates":  [ -80.5315166,37.1213643 ]
    },
    "properties": {
    "FIELD1":244,
    "NAME":"Blacksburg-Christiansburg-Radford, VA",
    "ENTRE":9,
    "IMMIG":43,
    "ImmiEnter":0,
    "TOTAL":295,
    "GEOID":13980,
    "variable":"IMMIGRate",
    "RATE":14.5762711864407
    }
  },
  {
    "type": "Feature",
    "geometry": {
       "type": "Point",
       "coordinates":  [ -80.006109,33.0058308 ]
    },
    "properties": {
    "FIELD1":245,
    "NAME":"Charleston-North Charleston, SC",
    "ENTRE":104,
    "IMMIG":119,
    "ImmiEnter":11,
    "TOTAL":2087,
    "GEOID":16700,
    "variable":"IMMIGRate",
    "RATE":5.70196454240537
    }
  },
  {
    "type": "Feature",
    "geometry": {
       "type": "Point",
       "coordinates":  [ -79.4005733,36.0439535 ]
    },
    "properties": {
    "FIELD1":246,
    "NAME":"Burlington, NC",
    "ENTRE":38,
    "IMMIG":125,
    "ImmiEnter":13,
    "TOTAL":778,
    "GEOID":15500,
    "variable":"IMMIGRate",
    "RATE":16.0668380462725
    }
  },
  {
    "type": "Feature",
    "geometry": {
       "type": "Point",
       "coordinates":  [ -78.7773351,43.0443711 ]
    },
    "properties": {
    "FIELD1":247,
    "NAME":"Buffalo-Cheektowaga-Niagara Falls, NY",
    "ENTRE":63,
    "IMMIG":174,
    "ImmiEnter":2,
    "TOTAL":2082,
    "GEOID":15380,
    "variable":"IMMIGRate",
    "RATE":8.35734870317003
    }
  },
  {
    "type": "Feature",
    "geometry": {
       "type": "Point",
       "coordinates":  [ -78.7104629,40.5103124 ]
    },
    "properties": {
    "FIELD1":248,
    "NAME":"Johnstown, PA",
    "ENTRE":5,
    "IMMIG":0,
    "ImmiEnter":0,
    "TOTAL":361,
    "GEOID":27780,
    "variable":"IMMIGRate",
    "RATE":0
    }
  },
  {
    "type": "Feature",
    "geometry": {
       "type": "Point",
       "coordinates":  [ -78.578282,37.8545896 ]
    },
    "properties": {
    "FIELD1":249,
    "NAME":"Charlottesville, VA",
    "ENTRE":70,
    "IMMIG":68,
    "ImmiEnter":4,
    "TOTAL":741,
    "GEOID":16820,
    "variable":"IMMIGRate",
    "RATE":9.17678812415655
    }
  },
  {
    "type": "Feature",
    "geometry": {
       "type": "Point",
       "coordinates":  [ -77.4994691,34.7631087 ]
    },
    "properties": {
    "FIELD1":250,
    "NAME":"Jacksonville, NC",
    "ENTRE":11,
    "IMMIG":32,
    "ImmiEnter":0,
    "TOTAL":630,
    "GEOID":27340,
    "variable":"IMMIGRate",
    "RATE":5.07936507936508
    }
  },
  {
    "type": "Feature",
    "geometry": {
       "type": "Point",
       "coordinates":  [ -76.5495009,39.304361 ]
    },
    "properties": {
    "FIELD1":251,
    "NAME":"Baltimore-Columbia-Towson, MD",
    "ENTRE":299,
    "IMMIG":819,
    "ImmiEnter":65,
    "TOTAL":5299,
    "GEOID":12580,
    "variable":"IMMIGRate",
    "RATE":15.4557463672391
    }
  },
  {
    "type": "Feature",
    "geometry": {
       "type": "Point",
       "coordinates":  [ -76.5303837,38.2202894 ]
    },
    "properties": {
    "FIELD1":252,
    "NAME":"California-Lexington Park, MD",
    "ENTRE":20,
    "IMMIG":3,
    "ImmiEnter":0,
    "TOTAL":466,
    "GEOID":15680,
    "variable":"IMMIGRate",
    "RATE":0.643776824034335
    }
  },
  {
    "type": "Feature",
    "geometry": {
       "type": "Point",
       "coordinates":  [ -76.250198,40.0419921 ]
    },
    "properties": {
    "FIELD1":253,
    "NAME":"Lancaster, PA",
    "ENTRE":73,
    "IMMIG":56,
    "ImmiEnter":0,
    "TOTAL":1003,
    "GEOID":29540,
    "variable":"IMMIGRate",
    "RATE":5.58325024925224
    }
  },
  {
    "type": "Feature",
    "geometry": {
       "type": "Point",
       "coordinates":  [ -74.6337584,39.469354 ]
    },
    "properties": {
    "FIELD1":254,
    "NAME":"Atlantic City-Hammonton, NJ",
    "ENTRE":11,
    "IMMIG":98,
    "ImmiEnter":0,
    "TOTAL":521,
    "GEOID":12100,
    "variable":"IMMIGRate",
    "RATE":18.809980806142
    }
  },
  {
    "type": "Feature",
    "geometry": {
       "type": "Point",
       "coordinates":  [ -73.3670614,41.2274128 ]
    },
    "properties": {
    "FIELD1":255,
    "NAME":"Bridgeport-Stamford-Norwalk, CT",
    "ENTRE":209,
    "IMMIG":703,
    "ImmiEnter":69,
    "TOTAL":2352,
    "GEOID":14860,
    "variable":"IMMIGRate",
    "RATE":29.8894557823129
    }
  },
  {
    "type": "Feature",
    "geometry": {
       "type": "Point",
       "coordinates":  [ -73.0411707,44.6891168 ]
    },
    "properties": {
    "FIELD1":256,
    "NAME":"Burlington-South Burlington, VT",
    "ENTRE":343,
    "IMMIG":262,
    "ImmiEnter":26,
    "TOTAL":4080,
    "GEOID":15540,
    "variable":"IMMIGRate",
    "RATE":6.42156862745098
    }
  },
  {
    "type": "Feature",
    "geometry": {
       "type": "Point",
       "coordinates":  [ -71.0219925,42.517606 ]
    },
    "properties": {
    "FIELD1":257,
    "NAME":"Boston-Cambridge-Newton, MA-NH",
    "ENTRE":1050,
    "IMMIG":3441,
    "ImmiEnter":235,
    "TOTAL":16560,
    "GEOID":14460,
    "variable":"IMMIGRate",
    "RATE":20.7789855072464
    }
  },
  {
    "type": "Feature",
    "geometry": {
       "type": "Point",
       "coordinates":  [ -70.2110827,41.7988188 ]
    },
    "properties": {
    "FIELD1":258,
    "NAME":"Barnstable Town, MA",
    "ENTRE":32,
    "IMMIG":44,
    "ImmiEnter":2,
    "TOTAL":408,
    "GEOID":12700,
    "variable":"IMMIGRate",
    "RATE":10.7843137254902
    }
  },
  {
    "type": "Feature",
    "geometry": {
       "type": "Point",
       "coordinates":  [ -70.2074347,44.1676811 ]
    },
    "properties": {
    "FIELD1":259,
    "NAME":"Lewiston-Auburn, ME",
    "ENTRE":53,
    "IMMIG":28,
    "ImmiEnter":2,
    "TOTAL":608,
    "GEOID":30340,
    "variable":"IMMIGRate",
    "RATE":4.60526315789474
    }
  },
  {
    "type": "Feature",
    "geometry": {
       "type": "Point",
       "coordinates":  [ -68.6665979,45.4092789 ]
    },
    "properties": {
    "FIELD1":260,
    "NAME":"Bangor, ME",
    "ENTRE":48,
    "IMMIG":25,
    "ImmiEnter":0,
    "TOTAL":821,
    "GEOID":12620,
    "variable":"IMMIGRate",
    "RATE":3.04506699147381
    }
  },
  {
    "type": "Feature",
    "geometry": {
       "type": "Point",
       "coordinates":  [ -122.0435556,40.7605142 ]
    },
    "properties": {
    "FIELD1":261,
    "NAME":"Redding, CA",
    "ENTRE":36,
    "IMMIG":10,
    "ImmiEnter":3,
    "TOTAL":571,
    "GEOID":39820,
    "variable":"IMMIGRate",
    "RATE":1.75131348511384
    }
  },
  {
    "type": "Feature",
    "geometry": {
       "type": "Point",
       "coordinates":  [ -116.1309212,34.5375344 ]
    },
    "properties": {
    "FIELD1":262,
    "NAME":"Riverside-San Bernardino-Ontario, CA",
    "ENTRE":531,
    "IMMIG":2528,
    "ImmiEnter":175,
    "TOTAL":8637,
    "GEOID":40140,
    "variable":"IMMIGRate",
    "RATE":29.2694222530971
    }
  },
  {
    "type": "Feature",
    "geometry": {
       "type": "Point",
       "coordinates":  [ -89.0429139,42.331183 ]
    },
    "properties": {
    "FIELD1":263,
    "NAME":"Rockford, IL",
    "ENTRE":73,
    "IMMIG":99,
    "ImmiEnter":8,
    "TOTAL":726,
    "GEOID":40420,
    "variable":"IMMIGRate",
    "RATE":13.6363636363636
    }
  },
  {
    "type": "Feature",
    "geometry": {
       "type": "Point",
       "coordinates":  [ -81.8424008,34.8346199 ]
    },
    "properties": {
    "FIELD1":264,
    "NAME":"Spartanburg, SC",
    "ENTRE":35,
    "IMMIG":78,
    "ImmiEnter":7,
    "TOTAL":723,
    "GEOID":43900,
    "variable":"IMMIGRate",
    "RATE":10.7883817427386
    }
  },
  {
    "type": "Feature",
    "geometry": {
       "type": "Point",
       "coordinates":  [ -76.1961336,43.0065163 ]
    },
    "properties": {
    "FIELD1":265,
    "NAME":"Syracuse, NY",
    "ENTRE":53,
    "IMMIG":107,
    "ImmiEnter":0,
    "TOTAL":1430,
    "GEOID":45060,
    "variable":"IMMIGRate",
    "RATE":7.48251748251748
    }
  },
  {
    "type": "Feature",
    "geometry": {
       "type": "Point",
       "coordinates":  [ -122.9261095,38.5251824 ]
    },
    "properties": {
    "FIELD1":266,
    "NAME":"Santa Rosa, CA",
    "ENTRE":81,
    "IMMIG":177,
    "ImmiEnter":33,
    "TOTAL":824,
    "GEOID":42220,
    "variable":"IMMIGRate",
    "RATE":21.4805825242718
    }
  },
  {
    "type": "Feature",
    "geometry": {
       "type": "Point",
       "coordinates":  [ -122.9017571,44.9033845 ]
    },
    "properties": {
    "FIELD1":267,
    "NAME":"Salem, OR",
    "ENTRE":69,
    "IMMIG":233,
    "ImmiEnter":8,
    "TOTAL":1273,
    "GEOID":41420,
    "variable":"IMMIGRate",
    "RATE":18.3032207384132
    }
  },
  {
    "type": "Feature",
    "geometry": {
       "type": "Point",
       "coordinates":  [ -122.2744317,37.7737185 ]
    },
    "properties": {
    "FIELD1":268,
    "NAME":"San Francisco-Oakland-Hayward, CA",
    "ENTRE":791,
    "IMMIG":3488,
    "ImmiEnter":309,
    "TOTAL":9900,
    "GEOID":41860,
    "variable":"IMMIGRate",
    "RATE":35.2323232323232
    }
  },
  {
    "type": "Feature",
    "geometry": {
       "type": "Point",
       "coordinates":  [ -122.007205,37.0124883 ]
    },
    "properties": {
    "FIELD1":269,
    "NAME":"Santa Cruz-Watsonville, CA",
    "ENTRE":66,
    "IMMIG":121,
    "ImmiEnter":6,
    "TOTAL":728,
    "GEOID":42100,
    "variable":"IMMIGRate",
    "RATE":16.6208791208791
    }
  },
  {
    "type": "Feature",
    "geometry": {
       "type": "Point",
       "coordinates":  [ -121.8831653,47.5530503 ]
    },
    "properties": {
    "FIELD1":270,
    "NAME":"Seattle-Tacoma-Bellevue, WA",
    "ENTRE":555,
    "IMMIG":1950,
    "ImmiEnter":133,
    "TOTAL":8781,
    "GEOID":42660,
    "variable":"IMMIGRate",
    "RATE":22.2070379227878
    }
  },
  {
    "type": "Feature",
    "geometry": {
       "type": "Point",
       "coordinates":  [ -121.3713721,36.9084718 ]
    },
    "properties": {
    "FIELD1":271,
    "NAME":"San Jose-Sunnyvale-Santa Clara, CA",
    "ENTRE":180,
    "IMMIG":1977,
    "ImmiEnter":87,
    "TOTAL":4276,
    "GEOID":41940,
    "variable":"IMMIGRate",
    "RATE":46.2347988774556
    }
  },
  {
    "type": "Feature",
    "geometry": {
       "type": "Point",
       "coordinates":  [ -121.3155723,36.240107 ]
    },
    "properties": {
    "FIELD1":272,
    "NAME":"Salinas, CA",
    "ENTRE":55,
    "IMMIG":329,
    "ImmiEnter":10,
    "TOTAL":819,
    "GEOID":41500,
    "variable":"IMMIGRate",
    "RATE":40.1709401709402
    }
  },
  {
    "type": "Feature",
    "geometry": {
       "type": "Point",
       "coordinates":  [ -121.272244,37.9349815 ]
    },
    "properties": {
    "FIELD1":273,
    "NAME":"Stockton-Lodi, CA",
    "ENTRE":55,
    "IMMIG":448,
    "ImmiEnter":19,
    "TOTAL":1436,
    "GEOID":44700,
    "variable":"IMMIGRate",
    "RATE":31.1977715877437
    }
  },
  {
    "type": "Feature",
    "geometry": {
       "type": "Point",
       "coordinates":  [ -121.0057504,38.7896779 ]
    },
    "properties": {
    "FIELD1":274,
    "NAME":"Sacramento--Roseville--Arden-Arcade, CA",
    "ENTRE":254,
    "IMMIG":1087,
    "ImmiEnter":71,
    "TOTAL":4774,
    "GEOID":40900,
    "variable":"IMMIGRate",
    "RATE":22.7691663175534
    }
  },
  {
    "type": "Feature",
    "geometry": {
       "type": "Point",
       "coordinates":  [ -120.4475418,35.3852263 ]
    },
    "properties": {
    "FIELD1":275,
    "NAME":"San Luis Obispo-Paso Robles-Arroyo Grande, CA",
    "ENTRE":42,
    "IMMIG":59,
    "ImmiEnter":9,
    "TOTAL":518,
    "GEOID":42020,
    "variable":"IMMIGRate",
    "RATE":11.3899613899614
    }
  },
  {
    "type": "Feature",
    "geometry": {
       "type": "Point",
       "coordinates":  [ -120.0399729,34.5370572 ]
    },
    "properties": {
    "FIELD1":276,
    "NAME":"Santa Maria-Santa Barbara, CA",
    "ENTRE":85,
    "IMMIG":215,
    "ImmiEnter":4,
    "TOTAL":902,
    "GEOID":42200,
    "variable":"IMMIGRate",
    "RATE":23.8359201773836
    }
  },
  {
    "type": "Feature",
    "geometry": {
       "type": "Point",
       "coordinates":  [ -117.5732186,48.1890407 ]
    },
    "properties": {
    "FIELD1":277,
    "NAME":"Spokane-Spokane Valley, WA",
    "ENTRE":102,
    "IMMIG":33,
    "ImmiEnter":4,
    "TOTAL":1393,
    "GEOID":44060,
    "variable":"IMMIGRate",
    "RATE":2.36898779612347
    }
  },
  {
    "type": "Feature",
    "geometry": {
       "type": "Point",
       "coordinates":  [ -116.7761174,33.0236041 ]
    },
    "properties": {
    "FIELD1":278,
    "NAME":"San Diego-Carlsbad, CA",
    "ENTRE":550,
    "IMMIG":1975,
    "ImmiEnter":159,
    "TOTAL":7147,
    "GEOID":41740,
    "variable":"IMMIGRate",
    "RATE":27.6339722960683
    }
  },
  {
    "type": "Feature",
    "geometry": {
       "type": "Point",
       "coordinates":  [ -113.4878003,37.2625308 ]
    },
    "properties": {
    "FIELD1":279,
    "NAME":"St. George, UT",
    "ENTRE":69,
    "IMMIG":59,
    "ImmiEnter":9,
    "TOTAL":562,
    "GEOID":41100,
    "variable":"IMMIGRate",
    "RATE":10.4982206405694
    }
  },
  {
    "type": "Feature",
    "geometry": {
       "type": "Point",
       "coordinates":  [ -112.9531375,40.5727871 ]
    },
    "properties": {
    "FIELD1":280,
    "NAME":"Salt Lake City, UT",
    "ENTRE":337,
    "IMMIG":933,
    "ImmiEnter":44,
    "TOTAL":5460,
    "GEOID":41620,
    "variable":"IMMIGRate",
    "RATE":17.0879120879121
    }
  },
  {
    "type": "Feature",
    "geometry": {
       "type": "Point",
       "coordinates":  [ -105.9657706,35.5143241 ]
    },
    "properties": {
    "FIELD1":281,
    "NAME":"Santa Fe, NM",
    "ENTRE":113,
    "IMMIG":302,
    "ImmiEnter":28,
    "TOTAL":1143,
    "GEOID":42140,
    "variable":"IMMIGRate",
    "RATE":26.421697287839
    }
  },
  {
    "type": "Feature",
    "geometry": {
       "type": "Point",
       "coordinates":  [ -98.6069734,29.4330599 ]
    },